Latitude,Longitude,Station Name,Train Lines
40.68672833,-73.990272,Smith St & Bergen St At Ne Corner (To Manhattan And Queens Only),F-G
40.69372533,-73.990678,Court St & Montague St At Sw Corner,2-3-4-5-N-R
40.69364233,-73.990592,Court St & Montague St At Sw Corner,2-3-4-5-N-R
40.69439312,-73.99253736,Clinton St & Montague St At Nw Corner,2-3-4-5-N-R
40.66272736,-73.96224892,Flatbush Ave & Empire Blvd At Sw Corner,B-Q-S
40.67716435,-73.98339417,4th Ave & Union St At Sw Corner (To Bay Ridge And Coney Island Only),D-N-R
40.67705164,-73.98308231,4th Ave & Union St At Se Corner (To Manhattan Only),D-N-R
40.67719509,-73.98299,4th Ave & Union St At Se Corner (To Manhattan Only),D-N-R
40.68069933,-73.975209,Flatbush Ave & Bergen St At Sw Corner (To New Lots And Flatbush Only),2-3-4
40.69204411,-73.98621464,Lawrence St & Willoughby St At Ne Corner,N-R
40.69225842,-73.98611377,Lawrence St & Willoughby St At Se Corner,N-R
40.69044933,-73.985271,Hoyt St & Fulton St At Sw Corner (To New Lots And Flatbush Only),2-3
40.69089533,-73.985255,Bridge St & Fulton St At Ne Corner (To Manhattan Only),2-3
40.69044233,-73.984551,Duffield St & Fulton St At Nw Corner (To Manhattan Only),2-3
40.69040733,-73.984347,Duffield St & Fulton St At Ne Corner (To Manhattan Only),2-3
40.6920956,-73.98536144,Bridge St & Willoughby St At Sw Corner,N-R
40.69223494,-73.98519674,Bridge St & Willoughby St At Ne Corner,N-R
40.6915088,-73.98215995,Flatbush Ave & Fleet St At Ne Corner,B-D-N-Q-R
40.68392533,-73.978871,4th Ave & Pacific St At Nw Corner,2-3-4-5-B-D-N-Q-R
40.68515511,-73.97774737,Ashland Pl & Hanson Pl At Ne Corner,2-3-4-5-B-D-N-Q-R
40.6923566,-73.98619068,Lawrence St & Willoughby St At Ne Corner,N-R
40.68111653,-73.99439275,Smith St & President St At Nw Corner,F-G
40.67187792,-73.96437533,Washington Ave & Eastern Pkwy At Sw Corner,2-3-4
40.67213641,-73.96415218,Washington Ave & Eastern Pkwy At Nw Corner,2-3-4
40.67034265,-73.9578869,Franklin Ave & Eastern Pkwy At Se Corner,2-3-4-5-S
40.67074103,-73.9576456,Franklin Ave & Eastern Pkwy At Ne Corner,2-3-4-5-S
40.68103492,-73.95569778,Franklin Ave & Fulton St At Sw Corner,A-C-S
40.67092663,-73.95772032,Franklin Ave & Eastern Pkwy At Ne Corner,2-3-4-5-S
40.70132133,-73.986653,Jay St & York St At Sw Corner,F
40.71875307,-73.98827786,Essex St & Delancey St At Nw Corner,F-J-M-Z
40.68986469,-73.9813607,Flatbush Ave & De Kalb Ave At Se Corner,B-D-N-Q-R
40.58772911,-73.81401045,Beach 90th St & Rockaway Frwy At Se Corner,A-S
40.6991615,-73.98891298,Red Cross Pl & Adams St At Sw Corner,A-C
40.69925855,-73.9882707,Sands St & Adams St At Se Corner,A-C
40.69260441,-73.99060229,Court St & Joralemon St At Ne Corner,2-3-4-5-N-R
40.70534033,-73.811829,144-01 Hillside Avenue,F
40.63504233,-73.962783,1515 Foster Avenue (Enter From Newkirk Ave Pz),B-Q
40.75221933,-73.927641,37-01 36 Street (To Manhattan And Brooklyn Only),E-M-R
40.63637533,-73.994612,4902 12 Avenue,D
40.71261233,-74.008224,1 Barclay Street (Enter On Park Place),2-3-A-C-E
40.68367744,-73.96711602,486 Clinton Avenue (To Manhattan Only),A-C
40.6245642,-73.9757772,1175 Mc Donald Avenue,F
40.70097088,-73.81629903,135-02 89 Avenue,E
40.74655506,-73.89071415,40-02 75 Street,7-E-F-M-R
40.69367233,-73.929667,1122 Broadway,J
40.76029733,-73.983567,729 7 Avenue (Uptown Only),N-Q-R
40.75028333,-73.99065,421 7 Avenue,1-2-3
40.74965633,-73.99113,401 7 Avenue,1-2-3
40.70547144,-73.95054471,502 Broadway,G
40.71069233,-74.008428,2 Ann Street,2-3-4-5-A-C-J-Z
40.75031333,-73.990854,421 7 Avenue,1-2-3
40.69343233,-73.85244,92-20 Jamaica Avenue,J-Z
40.80776734,-73.919314,235 Brook Avenue (To Manhattan Only),6
40.62614515,-73.97603747,101 Avenue I,F
40.64271533,-73.97924,102 Beverly Road,F
40.76042233,-73.976146,656 5 Avenue,E-M
40.6797779,-73.94135896,1490 Fulton Street (To Queens Only),A-C
40.74703633,-73.993138,311 7 Avenue (Uptown Only),1-2
40.51783269,-74.2390068,Nassau Pl & Averill Pl At Sw Corner,SIExpress
40.64472488,-74.07671915,75 Richmond Terrace,SIExpress
40.70858933,-73.95801,295 Broadway (To Manhattan Only),J-M-Z
40.72558334,-74.003747,166 6 Avenue,A-C-E
40.70283633,-73.907481,701 Seneca Avenue,M
40.74781733,-73.883829,82-01 Roosevelt Avenue,7
40.70679995,-74.00887882,47 Pine Street,2-3
40.81655333,-73.896234,1025 Longwood Avenue (To Manhattan Only),6
40.69002503,-73.9516544,573 Lafayette Avenue,G
40.78089533,-73.972918,180 Central Park West,A-C-B
40.86575833,-73.927266,4761 Broadway,A
40.75169833,-73.856017,39-16 111 Street,7
40.71947133,-74.001617,418 Broadway,4-6-6Express-J-Z-N-Q-R
40.6608587,-73.96204896,462 Flatbush Avenue (Enter From Lincoln Rd),B-Q-S
40.76645233,-73.982815,956 8 Avenue,1-2-A-C-B-D
40.68318133,-73.911274,1720 Broadway,J-Z
40.68338859,-73.96709508,856 Fulton Street (To Queens Only),A-C
40.74914333,-73.937979,42-01 28 Street,E-M-R
40.67805433,-73.910634,2154 Fulton Street,A-C
40.71269933,-74.004099,1 Centre Street,4-5-6-6Express-J-Z
40.72371533,-73.950592,626 Manhattan Avenue,G
40.68876323,-73.96014953,344 Classon Avenue,G
40.75406933,-73.942132,40-33 21 Street,F
40.76870133,-73.981717,1824 Broadway,1-2-A-C-B-D
40.69397933,-73.94908,602 Marcy Avenue,G
40.76264133,-73.967637,131 East 60 Street,4-5-6-6Express-N-Q-R
40.63303462,-73.94750633,2137 Nostrand Avenue,2-5
40.68067533,-73.974763,70 6 Avenue (To Manhattan Only),2-3-4
40.63325133,-73.947928,Nostrand Ave & Flatbush Ave At Nw Corner,2-5
40.63285833,-73.947506,Nostrand Ave & Flatbush Ave At Ne Corner,2-5
40.65066333,-73.949416,Nostrand Ave & Church Ave At Se Corner (To Manhattan Only),2-5
40.66812833,-73.950474,Nostrand Ave & President St At Ne Corner,2-5
40.66980433,-73.950389,Nostrand Ave & Eastern Pkwy At Se Corner,3-4
40.69543933,-73.949423,Marcy Ave & Myrtle Ave At Nw Corner,G
40.66902733,-73.933789,Schenectady Ave & Eastern Pkwy At Ne Corner,3-4
40.66868047,-73.93102884,Utica Ave & Eastern Pkwy At Se Corner,3-4
40.69685193,-73.93545258,Broadway & Myrtle Ave At Nw Corner,J-Z
40.71771933,-73.957687,Bedford Ave & N 7th St At Se Corner,L
40.69996633,-73.949913,Union Ave & Flushing Ave At Ne Corner (To Queens Only),G
40.70662733,-73.952344,Hewes St & Broadway At Ne Corner,J-M
40.71376833,-73.951445,Union Ave & Metropolitan Ave At Se Corner,G-L
40.70331333,-73.946688,Lorimer St & Broadway At Sw Corner,J-M
40.70059523,-73.94223515,Flushing Ave & Broadway At Se Corner,J-M
40.72547833,-73.951906,Manhattan Ave & Norman Ave At Nw Corner,G
40.72381033,-73.950928,Manhattan Ave & Nassau Ave At Nw Corner,G
40.71444933,-73.944248,Graham Ave & Metropolitan Ave At Se Corner (To Canarsie Only),L
40.71203533,-73.940892,Grand St & Bushwick Ave At Ne Corner (To Canarsie Only),L
40.70623433,-73.931989,Morgan Ave & Harrison Pl At Sw Corner,L
40.73227033,-73.954415,Manhattan Ave & India St At Se Corner,G
40.66493233,-73.922663,Rutland Rd & E. 98th St At Ne Corner,3-4
40.66167533,-73.915345,Saratoga Ave & Livonia Ave At Ne Corner,3-4
40.64554533,-73.902498,Glenwood Rd & Rockaway Pkwy At Nw Corner,L
40.6787143,-73.92151693,Ralph Ave & Fulton St At Se Corner,A-C
40.67859262,-73.91376868,Hopkinson Ave & Fulton St At Nw Corner,A-C
40.68906833,-73.921565,Palmetto St & Broadway At Sw Corner,J-Z
40.68693333,-73.917295,Jefferson Ave & Broadway At Ne Corner,J
40.69014133,-73.922948,Linden St & Broadway At Nw Corner,J-Z
40.67569803,-73.90280547,Snediker Ave & New York Ave At Sw Corner,L
40.67676933,-73.899586,Alabama Av & Fulton St At Se Corner,J
40.67423933,-73.896669,Pennsylvania Ave & Liberty Ave At Sw Corner,A-C
40.6887876,-73.90467904,Lirr Bay Ridge Divide & Wilson Ave At Nw Corner,L
40.67250633,-73.890153,Van Siclen Ave & Pitkin Ave At Se Corner,A-C
40.66628133,-73.88329,Ashford St & Livonia Av At Sw Corner,3-4
40.67400133,-73.880665,Shepherd Ave & Pitkin Ave At Se Corner,A-C
40.67526833,-73.872087,Euclid Ave & Pitkin Ave At Sw Corner,A-C-S
40.67548833,-73.872086,Euclid Ave & Pitkin Ave At Nw Corner,A-C-S
40.70601433,-73.922119,Starr St & Wyckoff Ave At Se Corner,L
40.70415333,-73.919273,Dekalb Ave & Wycoff Ave At Se Corner,L
40.70334233,-73.917959,Stanhope St & Wycoff Ave At Sw Corner,L
40.70346133,-73.917606,Stanhope St & Wycoff Ave At Ne Corner,L
40.70724233,-73.923723,Jefferson St & Wyckoff Ave At Nw Corner,L
40.70621633,-73.921931,Starr St & Wyckoff Ave At Ne Corner,L
40.70481633,-73.902208,Forest Ave & Myrtle Ave At Nw Corner,M
40.70611538,-73.8955591,62nd St & 67th Ave At Se Corner,M
40.74294533,-73.882701,Britton Ave & Broadway At Nw Corner,E-M-R
40.7548279,-73.84580039,126th St & Roosevelt Ave At Nw Corner,7-7Express
40.75423698,-73.84601379,126th St & Roosevelt Ave At Sw Corner,7-7Express
40.72932524,-73.85955373,64th Rd & Queens Blvd At Nw Corner,E-M-R
40.69147144,-73.86659544,75th St & Jamaica At Nw Corner,J-Z
40.69526863,-73.84329543,104th St & Jamaica Ave At Ne Corner,J-Z
40.70120445,-73.81641338,Van Wyck Expwy & 89th Ave At Sw Corner,E
40.7006296,-73.94199502,Flushing Ave & Broadway At Se Corner,J-M
40.69571257,-73.90526431,Halsey St & Wycoff Ave At Sw Corner (To Canarsie Only),L
40.6794871,-73.92972549,Utica Ave & Fulton St At Nw Corner,A-C
40.68835813,-73.96567001,Washington Ave & Lafayette Ave At Ne Corner,G
40.68783351,-73.96788613,Clinton Ave & Lafayette Ave At Sw Corner,G
40.68933096,-73.95496904,Bedford Ave & Lafayette Ave At Se Corner,G
40.68955303,-73.95528961,Bedford Ave & Lafayette Ave At Nw Corner,G
40.6686647,-73.93072282,Utica Ave & Eastern Pkwy At Se Corner,3-4
40.65145808,-73.96283996,St. Pauls Pl & Caton Ave At Se Corner,B-Q
40.57549885,-73.9769987,8th St & Surf Ave At Nw Corner,F-Q
40.66985071,-73.98947403,4th Ave & 10th St At Nw Corner,D-F-G-N-R
40.62452814,-73.97615661,Mcdonald Ave & Avenue J At Nw Corner,F
40.51321563,-74.25096684,Main St & Utah St At Nw Corner,SIExpress
40.51538868,-74.24543269,Tracy Av & Arthur Kill Rd At Nw Corner,SIExpress
40.74854733,-73.876576,90th St & Roosevelt Ave At Nw Corner,7
40.73333033,-73.870973,Woodhaven Blvd & Queens Blvd At Sw Corner,E-M-R
40.73321333,-73.868733,Horace Harding Expwy & Queens Blvd At Ne Corner,E-M-R
40.74977733,-73.862303,103rd St & Roosevelt Ave At Se Corner,7
40.72659533,-73.853492,67th Ave & Queens Blvd At Se Corner,E-M-R
40.72149633,-73.843382,71st & Queens Blvd At Ne Corner,E-F-M-R
40.71397033,-73.831328,Union Tpke & Queens Blvd At Se Corner,E-F
40.71902353,-73.8379844,75th & Queens Blvd At Nw Corner (To Manhattan And Brooklyn Only),E-F
40.71492833,-73.831485,Union Tpke & Queens Blvd At Nw Corner,E-F
40.75939033,-73.82991,Main St & Roosevelt Ave At Se Corner,7-7Express
40.75971033,-73.829962,Main St & Roosevelt Ave At Ne Corner,7-7Express
40.70809233,-73.8201,Van Wyck Blvd & Queens Blvd At Sw Corner (To Jamaica Only),E-F
40.70266133,-73.817191,Van Wyck Expwy & Jamaica Ave At Nw Corner,E
40.70076833,-73.807894,Sutphin Blvd & Archer Ave At Nw Corner,E-J-Z
40.70565033,-73.809491,Sutphin Blvd & Hillside Ave At Se Corner,F
40.70709133,-73.804491,153rd St & Hillside Ave At Sw Corner,F
40.70755533,-73.802796,Parsons Blvd & Hillside Ave At Sw Corner,F
40.71014733,-73.794915,168th St & Hillside Ave At Nw Corner,F
40.71082133,-73.793213,169th St & Hillside Ave At Nw Corner,F
40.71094733,-73.792948,169th St & Hillside Ave At Ne Corner,F
40.71233533,-73.784501,179th St & Hillside Ave At Sw Corner,F
40.71240033,-73.784304,179th St & Hillside Ave At Se Corner,F
40.71290833,-73.783314,180th St & Hillside Ave At Nw Corner,F
40.71277633,-73.782652,180th St & Hillside Ave At Sw Corner,F
40.60474078,-73.75417282,Beach 22nd St & Mott Ave At Sw Corner,A
40.58308533,-73.827577,Beach 106th St & Rockaway Frwy At Nw Corner,A-S
40.58349133,-73.827166,Beach 106th St & Rockaway Frwy At Nw Corner,A-S
40.58557133,-73.820295,Beach 98th St & Rockaway Frwy At Nw Corner,A-S
40.59084033,-73.796585,Beach 67th St & Rockaway Frwy At Sw Corner,A
40.59117633,-73.7961,Beach 69th St & Rockaway Frwy At Se Corner,A
40.59223133,-73.78915,Beach 59th Sr & Rockaway Frwy At Sw Corner,A
40.59282633,-73.776165,Beach 45th St & Edgemere Ave At Sw Corner,A
40.59309234,-73.776047,Beach 45th St & Edgemere Ave At Ne Corner,A
40.59541233,-73.767885,Beach 35th & Rockaway Frwy At Sw Corner,A
40.67676933,-73.899586,Alabama Av & Fulton St At Se Corner,J
40.65142085,-73.89917839,Turnbull Ave & E 105th St At Se Corner,L
40.73973433,-74.002804,8th Ave & 14th St At Sw Corner,A-C-E-L
40.73994933,-74.002655,8th Ave & 14th St At Nw Corner,A-C-E-L
40.73977633,-74.002256,8th Ave & 14th St At Ne Corner,A-C-E-L
40.74041933,-74.001762,8th Ave & 15th St At Ne Corner,A-C-E-L
40.74094433,-74.001402,8th Ave & 16th St At Se Corner,A-C-E-L
40.74105733,-74.001308,8th Ave & 16th St At Ne Corner,A-C-E-L
40.71020733,-74.007562,Fulton St & Nassau St At Ne Corner,2-3-4-5-A-C-J-Z
40.74527833,-73.998771,8th Ave & 23rd St At Sw Corner,A-C-E
40.74550533,-73.998642,8th Ave & 23rd St At Nw Corner,A-C-E
40.73742333,-73.99722,6th Ave & 14th St At Sw Corner,1-2-3-L-F-M
40.73757233,-73.997111,6th Ave & 14th St At Nw Corner,1-2-3-L-F-M
40.73719733,-73.996704,6th Ave & 14th St At Se Corner,1-2-3-L-F-M
40.73714933,-73.996578,6th Ave & 14th St At Se Corner,1-2-3-L-F-M
40.73728633,-73.996437,6th Ave & 14th St At Ne Corner,1-2-3-L-F-M
40.73852933,-73.995685,6th Ave & 16th St At Se Corner,1-2-3-L-F-M
40.73447433,-73.990173,4th Ave & 14th St At Sw Corner,4-5-6-6Express-L-N-Q-R
40.73489133,-73.991277,Broadway & 14th St At Sw Corner,4-5-6-6Express-L-N-Q-R
40.73534433,-73.990283,4th Ave & 15th St At Sw Corner,4-5-6-6Express-L-N-Q-R
40.73652333,-73.990447,Broadway & 16th St At Ne Corner,4-5-6-6Express-L-N-Q-R
40.74120633,-73.998035,7th Ave & 18th St At Nw Corner (Downtown Only),1-2
40.74092033,-73.997698,7th Ave & 18th St At Se Corner (Uptown Only),1-2
40.74178333,-73.997557,7th Ave & 18th St At Nw Corner (Downtown Only),1-2
40.74161733,-73.997197,7th Ave & 18th St At Ne Corner (Uptown Only),1-2
40.74529933,-73.998145,8th Ave & 23rd St At Ne Corner,A-C-E
40.74611033,-73.998145,8th Ave & 24th St At Nw Corner,A-C-E
40.74660333,-73.997801,8th Ave & 25th St At Sw Corner,A-C-E
40.71420033,-74.008357,Church St & Warren St At Se Corner,2-3-A-C-E
40.71343733,-74.00676,Broadway & Warren St At Ne Corner,N-R
40.74673233,-73.997711,8th Ave & 25th St At Nw Corner,A-C-E
40.74648333,-73.997142,8th Ave & 25th St At Ne Corner,A-C-E
40.74391033,-73.995608,7th Ave & 23rd St At Se Corner (Uptown Only),1-2
40.74431333,-73.995811,7th Ave & 23rd St At Nw Corner (Downtown Only),1-2
40.74412033,-73.995348,7th Ave & 23rd St At Ne Corner (Uptown Only),1-2
40.74312133,-73.993099,6th Ave & 23rd St At Nw Corner (Downtown Only),F-M
40.75156133,-73.994243,8th Ave & 33rd St At Sw Corner,A-C-E
40.74726433,-73.993611,7th Ave & 28th St At Sw Corner (Downtown Only),1-2
40.74721633,-73.993121,7th Ave & 28th St At Ne Corner (Uptown Only),1-2
40.75047633,-73.991254,7th Ave & 33rd St At Nw Corner,1-2-3
40.75081033,-73.990481,7th Ave & 34th St At Se Corner,1-2-3
40.75129133,-73.993887,8th Ave & 33rd St At Se Corner,A-C-E
40.75167733,-73.994107,8th Ave & 33rd St At Nw Corner,A-C-E
40.75202033,-73.993352,8th Ave & 34th St At Se Corner,A-C-E
40.75242733,-73.993679,8th Ave & 34th St At Nw Corner,A-C-E
40.75216133,-73.993109,8th Ave & 34th St At Ne Corner,A-C-E
40.75303233,-73.993188,8th Ave & 35th St At Nw Corner,A-C-E
40.75276633,-73.992596,8th Ave & 35th St At Ne Corner,A-C-E
40.75118733,-73.990791,7th Ave & 34th St At Nw Corner,1-2-3
40.75593034,-73.990492,8th Ave & 40th St At Ne Corner,1-2-3-7-7Express-S-A-C-E-N-Q-R
40.73420633,-73.989547,4th Ave & 14th St At Se Corner,4-5-6-6Express-L-N-Q-R
40.73296133,-73.986657,3rd Ave & 14th St At Se Corner (To Brooklyn Only),L
40.73327733,-73.986931,3rd Ave & 14th St At Ne Corner (To 8 Av Only),L
40.73105033,-73.982625,1st Ave & 14th St At Se Corner (To Brooklyn Only),L
40.73111833,-73.982563,1st Ave & 14th St At Se Corner (To Brooklyn Only),L
40.73139733,-73.982112,1st Ave & 14th St At Ne Corner (To 8 Av Only),L
40.74075833,-73.989632,Broadway & 22nd St At Nw Corner (Downtown Only),N-R
40.74127133,-73.989639,5th Ave & 22nd St At Ne Corner (Downtown Only),N-R
40.71544433,-74.009453,Chambers St & West Broadway At Sw Corner,1-2-3
40.71534933,-74.009211,Chambers St & West Broadway At Se Corner,1-2-3
40.71557633,-74.009031,Chambers St & West Broadway At Ne Corner,1-2-3
40.71487333,-74.008162,Church St & Chambers St At Sw Corner,2-3-A-C-E
40.71477733,-74.007903,Church St & Chambers St At Se Corner,2-3-A-C-E
40.71499233,-74.007739,Church St & Chambers St At Ne Corner,2-3-A-C-E
40.71896533,-74.007121,Varick St & Franklin St At Sw Corner (Downtown Only),1
40.71900133,-74.006675,West Broadway & Franklin St At Sw Corner (Uptown Only),1
40.71991833,-74.00662,Varick St & North Moore St At Ne Corner (Uptown Only),1
40.72293233,-74.00662,Canal St & Varick St At Nw Corner (Downtown Only),1
40.74197933,-73.989404,Broadway & 23rd St At Nw Corner (Downtown Only),N-R
40.74108033,-73.989083,Broadway & 23rd St At Se Corner (Uptown Only),N-R
40.74137833,-73.988895,Broadway & 23rd St At Ne Corner (Uptown Only),N-R
40.74153933,-73.988989,Broadway & 23rd St At Ne Corner (Uptown Only),N-R
40.74009733,-73.986601,Park Ave & 23rd St At Sw Corner (Downtown Only),4-6-6Express
40.74018033,-73.986617,Park Ave & 23rd St At Sw Corner (Downtown Only),4-6-6Express
40.74000833,-73.986233,Park Ave & 23rd St At Se Corner (Uptown Only),4-6-6Express
40.74548833,-73.98901,Broadway & 28th St At Nw Corner (Downtown Only),N-R
40.74509333,-73.988486,Broadway & 28th St At Se Corner (Uptown Only),N-R
40.74018033,-73.986006,Park Ave & 23rd St At Ne Corner (Uptown Only),4-6-6Express
40.74339433,-73.984409,Park Ave & 28th St At Sw Corner (Downtown Only),4-6-6Express
40.74348433,-73.98428,Park Ave & 28th St At Nw Corner (Downtown Only),4-6-6Express
40.74316733,-73.983896,Park Ave & 28th St At Se Corner (Uptown Only),4-6-6Express
40.74330433,-73.983857,Park Ave & 28th St At Ne Corner (Uptown Only),4-6-6Express
40.74572333,-73.982531,Park Ave & 32nd St At Sw Corner (Downtown Only),4-6-6Express
40.74558533,-73.982198,Park Ave & 32nd St At Se Corner (Uptown Only),4-6-6Express
40.74626333,-73.981663,Park Ave & 33rd St At Se Corner (Uptown Only),4-6-6Express
40.74655033,-73.981533,Park Ave & 33rd St At Ne Corner (Uptown Only),4-6-6Express
40.74874721,-73.98870514,6th Ave & 32nd St At Nw Corner,B-D-F-M-N-Q-R
40.75007633,-73.988113,Broadway & 34th St At Nw Corner,B-D-F-M-N-Q-R
40.74836133,-73.988045,Broadway & 32nd St At Ne Corner,B-D-F-M-N-Q-R
40.75064233,-73.987351,6th Ave & 35th St At Nw Corner,B-D-F-M-N-Q-R
40.75456833,-73.987827,7th Ave & 40th St At Se Corner,1-2-3-7-7Express-S-A-C-E-N-Q-R
40.75430133,-73.986623,Broadway & 40th St At Ne Corner,1-2-3-7-7Express-S-A-C-E-N-Q-R
40.75370933,-73.985084,6th Ave & 40th St At Nw Corner,7-7Express-B-D-F-M
40.75340833,-73.984892,6th Ave & 40th St At Se Corner,7-7Express-B-D-F-M
40.70201933,-74.013117,State St & Whitehall St At   Corner,N-R
40.70415733,-74.014509,State & Battery Pl At Sw Corner,4-5
40.70482533,-74.014572,Broadway & Battery Pl At Nw Corner,4-5
40.70401533,-74.013284,Stone St & Whitehall St At Sw Corner,N-R
40.70463433,-74.013554,Broadway & Bowling Green At Nw Corner,4-5
40.70412333,-74.013002,Stone St & Whitehall St At Ne Corner,N-R
40.70577233,-74.01154,Broad St & Exchange Pl At Sw Corner,J-Z
40.70582833,-74.011287,Broad St & Exchange Pl At Se Corner,J-Z
40.70651233,-74.014299,Greenwich St & Morris St At Nw Corner (Downtown Only),1
40.70655333,-74.014114,Greenwich St & Morris St At Ne Corner (Uptown Only),1
40.70755833,-74.013867,Greenwich St & Rector St At Sw Corner (Downtown Only),1
40.70751333,-74.013267,Trinity Pl & Rector St At Sw Corner (Downtown Only),N-R
40.70772133,-74.013118,Trinity Pl & Rector St At Sw Corner (Downtown Only),N-R
40.70764733,-74.012924,Trinity Pl & Rector St At Se Corner (Uptown Only),N-R
40.70806333,-74.012862,Trinity Pl & Rector St At Nw Corner (Downtown Only),N-R
40.70800933,-74.012704,Trinity Pl & Rector St At Ne Corner (Uptown Only),N-R
40.70816133,-74.013603,Greenwich St & Rector St At Nw Corner (Downtown Only),1
40.70731533,-74.012161,Broadway & Rector St At Sw Corner,4-5
40.70757731,-74.01192701,Broadway & Rector St At Nw Corner,4-5
40.70719033,-74.011997,Broadway & Rector St At Se Corner,4-5
40.70744633,-74.011848,Broadway & Wall St At Se Corner,4-5
40.70637933,-74.011274,Broad St & Exchange Pl At Nw Corner,J-Z
40.70614233,-74.011128,Broad St & Exchange Pl At Se Corner,J-Z
40.70690133,-74.010689,Broad St & Wall St At Se Corner,J-Z
40.71020133,-74.011198,Church St & Cortlandt St At Se Corner (Uptown Only),N-R
40.71043533,-74.011066,Church St & Cortlandt St At Ne Corner (Uptown Only),N-R
40.71106533,-74.010644,Church St & Dey St At Se Corner (Uptown Only),N-R
40.70693133,-74.010489,Broad St & Wall St At Se Corner,J-Z
40.70638533,-74.009658,William St & Wall St At Sw Corner,2-3
40.70627233,-74.009447,William St & Wall St At Se Corner,2-3
40.70650633,-74.009544,William St & Wall St At Nw Corner,2-3
40.70743133,-74.008778,William St & Cedar St At Nw Corner,2-3
40.71010633,-74.007648,Fulton St & Nassau St At Se Corner,2-3-4-5-A-C-J-Z
40.71045433,-74.009696,Broadway & Dey St At Sw Corner,2-3-4-5-A-C-J-Z
40.71171033,-74.010204,Church St & Fulton St At Ne Corner,2-3-A-C-E
40.71016833,-74.009422,Broadway & John St At Se Corner,2-3-4-5-A-C-J-Z
40.71091333,-74.009266,Broadway & Fulton St At Sw Corner,2-3-4-5-A-C-J-Z
40.71225834,-74.010306,Church St & Vesey St At Nw Corner,2-3-A-C-E
40.71303633,-74.009245,Church St & Park Pl At Se Corner,2-3-A-C-E
40.71328633,-74.009511,Church St & Park Pl At Sw Corner,2-3-A-C-E
40.71333333,-74.009033,Church St & Park Pl At Ne Corner,2-3-A-C-E
40.71394933,-74.00896,Church St & Murray St At Nw Corner,2-3-A-C-E
40.73719733,-74.0004,7th Ave & 12th St At Ne Corner,1-2-3-L-F-M
40.73801333,-74.000329,7th Ave & 13th St At Nw Corner,1-2-3-L-F-M
40.73848433,-73.999914,7th Ave & 14th St At Sw Corner,1-2-3-L-F-M
40.73835833,-73.999656,7th Ave & 14th St At Se Corner,1-2-3-L-F-M
40.75425538,-73.94193509,40-33 21 Street,F
40.6828262,-73.96455533,908 Fulton Street (To Queens Only),A-C
40.68839633,-73.984216,36 Bond Street,A-C-G
40.72211633,-73.996912,27 Cleveland Place (Uptown Only),4-6-6Express
40.75180133,-73.975294,137 East 42 Street (Enter From E 43 St),4-5-6-6Express-7-7Express-S
40.75287733,-73.993244,481 8 Avenue,A-C-E
40.69296784,-73.98744208,368 Jay Street,A-C-F
40.73031033,-73.954432,133 Greenpoint Avenue,G
40.70280133,-73.907888,1745 Palmetto Street,M
40.75085088,-73.9750777,640 3 Avenue,4-5-6-6Express-7-7Express-S
40.51960144,-74.22954799,Richmond Valley Rd & Richmond Valley Rd At Se Corner,SIExpress
40.51976616,-74.22891199,Weiner St & Richmond Valley Rd At Sw Corner,SIExpress
40.51967128,-74.22867964,Richmond Valley Rd & Amboy Rd At Nw Corner,SIExpress
40.52248948,-74.21681223,Amboy Rd & Penton St At Nw Corner,SIExpress
40.52510517,-74.20066738,Seguine Av & Herbert St At Ne Corner,SIExpress
40.54055391,-74.17843706,Belfield Av & N Railroad St At Sw Corner,SIExpress
40.54438812,-74.16521432,Richmond Av & Eltingville Bl At Se Corner,SIExpress
40.54420838,-74.16504799,Richmond Av & Mosely Av At Ne Corner,SIExpress
40.55104516,-74.1514904,Nelson Av & Brower St At Ne Corner,SIExpress
40.54064064,-74.17746136,Annadale Rd & N Railroad St At Sw Corner,SIExpress
40.55599897,-74.13746845,Bay Te & S Railroad Av At Ne Corner,SIExpress
40.56516899,-74.12605867,Oak Av & S Railroad Av At Nw Corner,SIExpress
40.56465705,-74.12687588,Guyon Av & N Railroad Av At Se Corner,SIExpress
40.57328948,-74.1176362,Rose Av & New Dorp Pz At   Corner,SIExpress
40.57944093,-74.10909547,Lincoln Av & N Railroad Av At Sw Corner,SIExpress
40.57905848,-74.10974678,Fremont Av & N Railroad Av At Sw Corner,SIExpress
40.58406245,-74.10279236,Jefferson Av & N Railroad Av At Sw Corner,SIExpress
40.58852075,-74.09636903,Seaview Av & Hancock St At Nw Corner,SIExpress
40.58861598,-74.09664097,Seaview Av & N Railroad Av At Sw Corner,SIExpress
40.58865601,-74.09610964,Seaview Av & Hancock St At Ne Corner,SIExpress
40.59608405,-74.08756359,Oregon Rd & Old Town Rd At Nw Corner,SIExpress
40.60364672,-74.08361005,Clove Rd & Hillcrest Te At Sw Corner,SIExpress
40.6215937,-74.0716916,Bay St & Townsend Av At Ne Corner,SIExpress
40.62776348,-74.07514058,Bay St & Cross St At Ne Corner,SIExpress
40.63763259,-74.07501784,Minthorne St & Victory Bl At Se Corner,SIExpress
40.64321533,-73.979333,101 Church Avenue,F
40.73221633,-73.954751,134 India Street,G
40.63603033,-73.994995,1173 50 Street,D
40.70595495,-73.89623205,67-05 Fresh Pond Road,M
40.68346733,-73.911063,1725 Broadway,J-Z
40.77377933,-73.959954,125 East 77 Street (Downtown Only),4-6-6Express
40.81236633,-73.904128,849a East 149 Street (To Manhattan Only),6
40.69230764,-73.99030083,45 Court Street,2-3-4-5-N-R
40.75985133,-73.8286,136-32 Roosevelt Avenue,7-7Express
40.69515414,-73.90297408,10-51 Wyckoff Avenue (To Manhattan Only),L
40.86134533,-73.897352,201 East 188 Street,B-D
40.75483233,-73.983657,1100 6 Avenue,7-7Express-B-D-F-M
40.74041933,-73.986452,1 Madison Avenue (Enter On E 23 St) (Downtown Only),4-6-6Express
40.75083533,-73.939671,41-41 Crescent Street,7-7Express-N-Q
40.76694333,-73.982971,973 8 Avenue,1-2-A-C-B-D
40.7089139,-73.95898897,265 Broadway (To Manhattan Only),J-M-Z
40.61416671,-74.00062923,1654 77 Street,D
40.66271233,-73.909102,233 Livonia Avenue,3-4
40.85538233,-73.929606,1611 St Nicholas Avenue,1
40.61282333,-74.000984,1673 79 Street,D
40.75484933,-73.984627,1081 6 Avenue,7-7Express-B-D-F-M
40.73325933,-73.999615,390 6 Avenue,A-C-E-B-D-F-M
40.82554233,-73.943887,741 St Nicholas Avenue,A-C-B-D
40.86574433,-73.927172,4761 Broadway,A
40.71468733,-73.944271,344 Graham Avenue (To Manhattan Only),L
40.66514733,-73.922842,69 East 98 Street,3-4
40.64127933,-73.963968,1518 Cortelyou Road,B-Q
40.75979433,-73.828811,136-32 Roosevelt Avenue,7-7Express
40.63544133,-73.97785,100 Ditmas Avenue,F
40.71419866,-73.95085376,543 Metropolitan Avenue,G-L
40.68057333,-73.842512,96-02 Liberty Avenue,A-S
40.68362919,-73.96674715,493 Clinton Avenue (To Manhattan Only),A-C
40.63030319,-74.0255072,7514 4 Avenue,R
40.75271733,-73.978487,51 East 42 Street,4-5-6-6Express-7-7Express-S
40.63988733,-73.948197,3001 Foster Avenue (Enter (To Manhattan Only),2-5
40.67959433,-73.857716,Liberty St (Between 80 St And 81 St),A-S
40.67925588,-73.93216024,1663 Atlantic Avenue,A-C
40.75972133,-73.973858,31 East 53 Street,E-M
40.680245,-73.94939087,1280 Fulton Street (To Queens Only),A-C
40.75140933,-73.855901,108-70 Roosevelt Avenue,7
40.73360233,-73.869507,59-02 92 Street,E-M-R
40.71055533,-74.008632,204 Broadway,2-3-4-5-A-C-J-Z
40.71702233,-73.956176,551 Driggs Avenue,L
40.76302008,-73.96781558,131 East 60 Street,4-5-6-6Express-N-Q-R
40.66576033,-73.978873,819 8 Avenue,F
40.76531333,-73.972467,5 Av (Between E 60 St And E 61 St),N-Q-R
40.57616133,-73.96768,102 Brighton Beach Avenue,B-Q
40.69785533,-73.926513,85 Cedar Street,M
40.65094933,-73.949424,3001 Church Avenue (To Manhattan Only),2-5
40.83593633,-73.940137,2042 Amsterdam Avenue (Downtown Only),A-C
40.76196833,-73.986662,815 8 Avenue (Downtown Only),A-C-E
40.70778733,-73.939682,235 Bushwick Avenue,L
40.75102033,-73.990323,441 7 Avenue,1-2-3
40.68908533,-73.985941,35 Hoyt Street,A-C-G
40.63173539,-73.94731836,3001 Avenue H,2-5
40.71268333,-73.783033,179-36 Hillside Avenue,F
40.62029333,-73.99849,1548 Bay Ridge Avenue,D
40.70607379,-73.93366584,Intersection Of Harrison Place And Bogart Street,L
40.74644733,-73.982147,37 East 32 Street (Downtown Only),4-6-6Express
40.69238284,-73.9906543,45 Court Street,2-3-4-5-N-R
40.71024133,-74.008022,126 Fulton Street,2-3-4-5-A-C-J-Z
40.61893533,-73.999241,1550 71 Street,D
40.76768133,-73.96395,138 East 68 Street,4-6-6Express
40.68567833,-73.826928,104-02 116 Street,A-S
40.74979037,-73.9917215,392 7 Avenue,1-2-3
40.70863033,-74.006999,69 John Street,2-3-4-5-A-C-J-Z
40.69366333,-73.852595,92-17 Jamaica Avenue,J-Z
40.62608202,-73.9765236,23 Avenue I,F
40.76050264,-73.98021847,1261 6 Avenue,B-D-F-M
40.74206921,-73.880985,82-55 Broadway,E-M-R
40.69980718,-73.91099905,1605 Palmetto Street,L-M
40.70988033,-73.794553,168-02 Hillside Avenue,F
40.64038433,-73.994158,4405 New Utrecht Avenue,D
40.71041833,-74.009665,189 Broadway,2-3-4-5-A-C-J-Z
40.73950133,-73.987134,280 Park Avenue South (Downtown Only),4-6-6Express
40.75930133,-73.980594,30 Rockefeller Plaza,B-D-F-M
40.76459933,-73.974228,764 5 Avenue,N-Q-R
40.68104533,-73.975498,463 Bergen Street (To New Lots And Flatbush Only),2-3-4
40.70850533,-73.95772,299 Broadway (To Manhattan Only),J-M-Z
40.75781133,-73.971098,137 East 52 Street,4-6-6Express-E-M
40.75283033,-73.978917,33 East 42 Street,4-5-6-6Express-7-7Express-S
40.74982822,-73.98751142,902 6 Avenue,B-D-F-M-N-Q-R
40.66711333,-73.981665,326 7 Avenue,F
40.75308733,-73.979537,11 East 42 Street,4-5-6-6Express-7-7Express-S
40.68605443,-73.9157199,1561 Broadway,J
40.62037033,-73.998803,6908 New Utrecht Avenue,D
40.65719733,-73.950013,1231 Nostrand Avenue (To Manhattan Only),2-5
40.69422222,-73.99262239,78 Clinton Street,2-3-4-5-N-R
40.68878531,-73.95980936,361 Classon Avenue,G
40.68945433,-73.873329,2 Hemlock Street,J
40.62866565,-73.97646341,1029 Mc Donald Avenue,F
40.70835133,-73.958135,300 Broadway,J-M-Z
40.64117033,-73.99447,1039 44 Street,D
40.75995333,-73.980117,1260 6 Avenue,B-D-F-M
40.6952142,-73.90379291,10-34 Wyckoff Avenue (To Canarsie Only),L
40.65430133,-74.004175,4 Ave (Between 35 St And 36 St),D-N-R
40.72390533,-73.950717,628 Manhattan Avenue,G
40.75032933,-73.987137,6th Ave & 35th St At Se Corner,B-D-F-M-N-Q-R
40.75041933,-73.986991,6th Ave & 35th St At Ne Corner,B-D-F-M-N-Q-R
40.75469133,-73.988067,7th Ave & 40th St At Sw Corner,1-2-3-7-7Express-S-A-C-E-N-Q-R
40.75417233,-73.98668,Broadway & 40th St At Se Corner,1-2-3-7-7Express-S-A-C-E-N-Q-R
40.75347333,-73.985259,6th Ave & 40th St At Sw Corner,7-7Express-B-D-F-M
40.70193833,-74.012588,South St & Whitehall St At Ne Corner,N-R
40.70212633,-74.013081,State St & Whitehall St At   Corner,N-R
40.70479533,-74.014454,Broadway & Battery Pl At Nw Corner,4-5
40.70409633,-74.013293,Stone St & Whitehall St At Nw Corner,N-R
40.70209233,-74.012632,Water St & Whitehall St At Se Corner,N-R
40.70602033,-74.011474,Broad St & Exchange Pl At Sw Corner,J-Z
40.70666158,-74.01408491,Greenwich St & Morris St At Ne Corner (Uptown Only),1
40.70730633,-74.013426,Trinity Pl & Exchange Alley At Nw Corner (Downtown Only),N-R
40.70790933,-74.012968,Trinity Pl & Rector St At Nw Corner (Downtown Only),N-R
40.70790233,-74.012774,Trinity Pl & Rector St At Ne Corner (Uptown Only),N-R
40.70810733,-74.013445,Greenwich St & Rector St At Ne Corner (Uptown Only),1
40.70767115,-74.01185431,Broadway & Rector St At Nw Corner,4-5
40.70742833,-74.012067,Broadway & Rector St At Sw Corner,4-5
40.70757733,-74.011731,Broadway & Wall St At Se Corner,4-5
40.70701233,-74.010882,Broad St & Wall St At Sw Corner,J-Z
40.70710834,-74.010802,Broad St & Wall St At Sw Corner,J-Z
40.71087133,-74.010767,Church St & Dey St At Ne Corner (Uptown Only),N-R
40.71255033,-74.011825,West Broadway & Vesey St At Se Corner,1
40.70802727,-74.00981445,Nassau St & Cedar St At Se Corner,J-Z
40.70639233,-74.009332,William St & Wall St At Ne Corner,2-3
40.70950733,-74.008295,John St & Nassau St At Ne Corner,2-3-4-5-A-C-J-Z
40.70957033,-74.006591,William St & Fulton St At Sw Corner,2-3-4-5-A-C-J-Z
40.71179333,-74.010165,Church St & Vesey St At Se Corner,2-3-A-C-E
40.71055533,-74.009493,Broadway & Dey St At Nw Corner,2-3-4-5-A-C-J-Z
40.71103833,-74.009219,Broadway & Fulton St At Nw Corner,2-3-4-5-A-C-J-Z
40.71268133,-74.009891,Church St & Barclay St At Sw Corner,2-3-A-C-E
40.71343533,-74.009292,Church St & Park Pl At Nw Corner,2-3-A-C-E
40.71375333,-74.009046,Church St & Murray St At Sw Corner,2-3-A-C-E
40.73738833,-74.000815,7th Ave & 12th St At Nw Corner,1-2-3-L-F-M
40.73784633,-73.99993,7th Ave & 13th St At Ne Corner,1-2-3-L-F-M
40.73877533,-73.999711,7th Ave & 14th St At Nw Corner,1-2-3-L-F-M
40.68028526,-73.94970701,1276 Fulton Street (To Queens Only),A-C
40.67814033,-73.910889,2152 Fulton Street,A-C
40.66547633,-73.888345,770 Livonia Avenue,3-4
40.75148333,-73.855662,40-01 111 Street,7
40.75669168,-73.97243999,111 East 50 Street,4-6-6Express-E-M
40.74678733,-73.993955,300 7 Avenue (Downtown Only),1-2
40.68396033,-73.832702,109-04 Liberty Avenue,A-S
40.57647633,-73.967938,101 Brighton Beach Avenue,B-Q
40.51761499,-74.23890291,Bethel Av & St Andrew's Pl At Nw Corner,SIExpress
40.51951069,-74.2295219,Richmond Valley Rd & Amboy Rd At Ne Corner,SIExpress
40.52279555,-74.2166169,Amboy Rd & Station Av At Sw Corner,SIExpress
40.52535311,-74.20081488,Seguine Av & Waterbury Av At Se Corner,SIExpress
40.54023872,-74.17870203,E Tenafly Av & S Railroad St At Nw Corner,SIExpress
40.55160028,-74.15064002,Giffords La & Baltimore St At Sw Corner,SIExpress
40.53320362,-74.19231297,Huguenot Av & West Te At Se Corner,SIExpress
40.55685366,-74.13629802,Justin Av & S Railroad Av At Nw Corner,SIExpress
40.56533753,-74.12629559,Cedarview Av & N Railroad Av At Se Corner,SIExpress
40.57395638,-74.11662825,New Dorp La & New Dorp Pz At   Corner,SIExpress
40.57892477,-74.10957557,Fremont Av & S Railroad Av At Nw Corner,SIExpress
40.58399736,-74.1026869,Jefferson Av & S Railroad Av At Nw Corner,SIExpress
40.58898116,-74.09566269,Garretson Av & Hancock St At Nw Corner,SIExpress
40.59610945,-74.08783393,N Railroad Av & Old Town Rd At Ne Corner,SIExpress
40.62183338,-74.0718813,Bay St & Norwood Av At Se Corner,SIExpress
40.63631039,-74.07472118,Bay St & Hannah St At Ne Corner,SIExpress
40.70556533,-73.809784,146-18 Hillside Avenue,F
40.75005834,-73.862548,39-23 103 Street,7
40.66491533,-73.893892,625 Livonia Avenue,3-4
40.65093133,-73.949776,2843 Church Avenue (To Flatbush Only),2-5
40.71420733,-73.949275,574 Lorimer Street,G-L
40.73010133,-73.954087,158 Greenpoint Avenue,G
40.62847605,-73.97699704,36 Lawrence Avenue (Enter From Parkville Av),F
40.69757933,-73.993158,51 Clark Street,2-3
40.63218633,-74.00658,969 62 Street (Enter From Ft Hamilton Py),N
40.70448133,-73.919194,1623 De Kalb Avenue,L
40.76666233,-73.983165,949 8 Avenue,1-2-A-C-B-D
40.75831733,-73.970503,884 3 Avenue (Enter On E 53 St),4-6-6Express-E-M
40.72127831,-73.84439445,107-31 71 Avenue,E-F-M-R
40.70235833,-73.79993,Intersection Of Parsons Block And Archer Avenue,E-J-Z
40.74900633,-73.869489,40-02 Junction Boulevard,7-7Express
40.64426353,-74.07326997,Staten Island Ferry Terminal,SIExpress
40.57797533,-73.960484,3069 Brighton 7 Street,B-Q
40.64059033,-74.018412,6003 4 Avenue,N-R
40.69869033,-73.918584,1340 Greene Avenue,M
40.70937633,-74.008375,1 Federal Reserve Plaza,2-3-4-5-A-C-J-Z
40.51211404,-74.25283252,7 Bentley Street,SIExpress
40.69303974,-73.98743262,368 Jay Street,A-C-F
40.71264634,-73.783192,179-30 Hillside Avenue,F
40.69981446,-73.91129546,1605 Palmetto Street,L-M
40.62499994,-73.96104838,1506 Avenue J,B-Q
40.71790533,-74.00031,240 Canal Street,4-6-6Express-J-Z-N-Q-R
40.75104633,-73.991271,242 West 34 Street,1-2-3
40.64501033,-73.949115,2914 Beverly Road (To Flatbush Only),2-5
40.6896847,-73.95160606,586 Lafayette Avenue,G
40.74652133,-73.896198,38-23 69 Street,7
40.75172133,-73.977197,101 East 41 Street,4-5-6-6Express-7-7Express-S
40.67732312,-73.97224062,657 Carlton Avenue,B-Q
40.75134533,-73.975409,137 East 42 Street,4-5-6-6Express-7-7Express-S
40.76340906,-73.98252764,824 7 Avenue,B-D-E
40.66248282,-73.96228476,462 Flatbush Avenue,B-Q-S
40.81611833,-73.89618,1030 Longwood Avenue (To Pelham Bay Pk Only),6
40.77972533,-73.955611,125 East 86 Street (Downtown Only),4-5-6-6Express
40.68358633,-73.872847,3327 Fulton Street,J-Z
40.86796533,-73.921168,4941 Broadway,A
40.85641511,-73.86737744,700 Pelham Parkway South,2-5
40.68012233,-73.84508,93-18 Liberty Avenue,A-S
40.65614933,-73.95035,692 Parkside Avenue (To Flatbush Only),2-5
40.64074533,-73.948649,1842 Nostrand Avenue (To Flatbush Only),2-5
40.5995413,-73.76159667,25-04 Brookhaven Avenue,A
40.66567733,-73.979491,902 8 Avenue,F
40.69135233,-73.866204,75-06 Jamaica Avenue,J-Z
40.69609051,-73.90465933,9-91 Wyckoff Avenue (To Manhattan Only),L
40.68054203,-73.94974898,1289 Fulton Street (To Manhattan Only),A-C
40.74637633,-73.890254,40-15 75 Street,7-E-F-M-R
40.80760733,-73.918951,250 Brook Avenue (To Manhattan Only),6
40.63639333,-73.994948,4910 New Utrecht Avenue,D
40.61876833,-73.998936,7102 16 Avenue,D
40.7087152,-73.95794666,170 Marcy Avenue (To Manhattan Only),J-M-Z
40.74093833,-74.001919,103 8 Avenue,A-C-E-L
40.68324344,-73.96462889,957 Fulton Street (To Manhattan Only),A-C
40.67250133,-73.890386,2222 Pitkin Avenue,A-C
40.74870533,-73.938471,42-01 28 Street,E-M-R
40.67827933,-73.913668,2084 Fulton Street,A-C
40.67775633,-73.89173,104 Van Siclen Avenue,J-Z
40.75164733,-73.977382,101 East 41 Street,4-5-6-6Express-7-7Express-S
40.71883643,-73.98789055,116 Delancey Street,F-J-M-Z
40.75087966,-73.98793491,1331 Broadway,B-D-F-M-N-Q-R
40.63041836,-73.97734023,956 Mc Donald Avenue,F
40.75170133,-73.976087,107 East 42 Street,4-5-6-6Express-7-7Express-S
40.75955633,-73.974068,28 East 53 Street,E-M
40.70920033,-74.006664,128 William Street,2-3-4-5-A-C-J-Z
40.64940044,-73.96351254,1713 Church Avenue,B-Q
40.74433028,-73.9113816,53-02 Roosevelt Avenue,7
40.62993007,-73.96147689,1518 Avenue H,B-Q
40.61919733,-73.999178,1551 71 Street,D
40.67969833,-73.88571,214 Cleveland Street,J
40.71857407,-73.83825706,111-37 75 Avenue (To Jamaica Only),E-F
40.6505187,-73.94925086,3000 Church Avenue (To Manhattan Only),2-5
40.71785633,-73.957577,183 Bedford Avenue,L
40.72366133,-73.950858,623 Manhattan Avenue,G
40.71213033,-73.940578,95 Bushwick Avenue (To Manhattan Only),L
40.75221833,-73.978396,43 East 41 Street,4-5-6-6Express-7-7Express-S
40.76231192,-73.98637837,815 8 Avenue (Downtown Only),A-C-E
40.75062309,-73.98798744,441 7 Avenue (Corner Of Broadway And W 35 St),B-D-F-M-N-Q-R
40.75574733,-73.986875,7 Times Square,1-2-3-7-7Express-S-A-C-E-N-Q-R
40.73306687,-73.99972782,378 6 Avenue,A-C-E-B-D-F-M
40.70054133,-73.807385,93-01 Sutphin Boulevard,E-J-Z
40.7055822,-73.95005856,1 Boerum Street,G
40.74462428,-73.9113016,41-31 53 Street,7
40.74745733,-73.884002,81-20 Roosevelt Avenue,7
40.75007733,-73.99082,401 7 Avenue,1-2-3
40.60533893,-73.98042479,275 Kings Highway,N
40.70823133,-73.957869,302 Broadway (To Queens And Canarsie Only),J-M-Z
40.68607833,-73.97328,1 Greene Avenue (To Manhattan Only),A-C
40.69239988,-73.98751302,368 Jay Street,A-C-F
40.67963411,-73.85263392,105-02 86 Street,A-S
40.70707433,-73.954371,394 Broadway,J-M
40.71282733,-73.782461,88-01 180 Street,F
40.65066333,-73.949721,2848 Church Avenue (To Flatbush Only),2-5
40.67973993,-73.85039199,88-04 Liberty Avenue,A-S
40.68602833,-73.824403,118-16 Liberty Avenue,A-S
40.66460033,-73.894197,624 Livonia Avenue,3-4
40.66647233,-73.883352,632 Ashford Street,3-4
40.73967433,-73.98704,47 East 22 Street (Downtown Only),4-6-6Express
40.74928233,-73.869648,38-10 Junction Boulevard,7-7Express
40.74680017,-73.89071276,40-02 75 Street,7-E-F-M-R
40.71363929,-73.83005549,9 Kew Gardens Road,E-F
40.75579533,-73.912622,48-02 Broadway (To Jamaica Only),E-M-R
40.74905733,-73.86917,40-01 Junction Boulevard,7-7Express
40.74959568,-73.98767192,1282 Broadway,B-D-F-M-N-Q-R
40.68094333,-73.974966,469 Bergen Street (To Manhattan Only),2-3-4
40.76060533,-73.983876,742 7 Avenue (Downtown Only),N-Q-R
40.69946851,-73.91064751,54-00 Myrtle Avenue,L-M
40.67976974,-73.9410955,1492 Fulton Street (To Queens Only),A-C
40.74582133,-73.982576,52 East 32 Street (Downtown Only),4-6-6Express
40.81514933,-73.958397,3180 Broadway,1
40.70904633,-74.006814,69 John Street,2-3-4-5-A-C-J-Z
40.64425733,-73.964537,1512 Beverly Road,B-Q
40.68238833,-73.909938,1772 Broadway,J-Z
40.67842033,-73.910723,2059 Fulton Street,A-C
40.75661433,-73.921084,34-02 Steinway Street,E-M-R
40.68579233,-73.972769,Oxford St & Fulton Ave At Ne Corner (To Manhattan Only),A-C
40.63276214,-73.94738941,Nostrand Ave & Flatbush Ave At Ne Corner,2-5
40.63326934,-73.947819,Nostrand Ave & Flatbush Ave At Nw Corner,2-5
40.63246533,-73.947499,Nostrand Ave & Flatbush Ave At Se Corner,2-5
40.63988133,-73.94858,Nostrand Ave & Newkirk Ave At Sw Corner (To Flatbush Only),2-5
40.65105033,-73.949729,Nostrand Ave & Church Ave At Nw Corner (To Flatbush Only),2-5
40.66327933,-73.951049,Nostrand Ave & Sterling St At Nw Corner,2-5
40.66817033,-73.950834,Nostrand Ave & President St At Nw Corner,2-5
40.66981633,-73.95067,Nostrand Ave & Eastern Pkwy At Sw Corner,3-4
40.66937133,-73.942347,Kingston Ave & Eastern Pkwy At Sw Corner,3-4
40.66935933,-73.942073,Kingston Ave & Eastern Pkwy At Se Corner,3-4
40.66881333,-73.933789,Schenectady Ave & Eastern Pkwy At Se Corner,3-4
40.66870433,-73.931356,Utica Ave & Eastern Pkwy At Sw Corner,3-4
40.66891333,-73.931372,Utica Ave & Eastern Pkwy At Nw Corner,3-4
40.66890321,-73.93118704,Utica Ave & Eastern Pkwy At Nw Corner,3-4
40.69299541,-73.92790295,Patchen Ave & Broadway At Sw Corner,J
40.69280292,-73.92814326,Patchen Ave & Broadway At Ne Corner,J
40.69968456,-73.95025996,Union Ave & Flushing Ave At Sw Corner (To Downtown Brooklyn Only),G
40.70727133,-73.954301,Hooper St & Broadway At Nw Corner,J-M
40.70641833,-73.952431,Hewes St & Broadway At Se Corner,J-M
40.71376833,-73.95175,Union Ave & Metropolitan Ave At Ne Corner,G-L
40.71392933,-73.951719,Union Ave & Metropolitan Ave At Sw Corner,G-L
40.70419533,-73.948268,Moore St & Broadway At Sw Corner,J-M
40.70439733,-73.948127,Moore St & Broadway At Nw Corner,J-M
40.70351533,-73.946547,Lorimer St & Broadway At Nw Corner,J-M
40.70084433,-73.941681,Flushing Ave & Broadway At Nw Corner,J-M
40.73007833,-73.954385,Manhattan Ave & Greenpoint Ave At Sw Corner,G
40.72555633,-73.951648,Manhattan Ave & Norman Ave At Ne Corner,G
40.71442533,-73.944498,Graham Ave & Metropolitan Ave At Nw Corner (To Canarsie Only),L
40.71461633,-73.944561,Graham Ave & Metropolitan Ave At Sw Corner (To Manhattan Only),L
40.70774033,-73.94005,Montrose Ave & Bushwick Ave At Sw Corner,L
40.71182633,-73.940759,Grand St & Bushwick Ave At Nw Corner (To Canarsie Only),L
40.71190433,-73.94043,Grand St & Bushwick Ave At Sw Corner (To Manhattan Only),L
40.69806333,-73.926364,Myrtle Ave & Cedar St At Nw Corner,M
40.70630633,-73.931676,Morgan Ave & Harrison Pl At Se Corner,L
40.70646033,-73.931739,Morgan Ave & Harrison Pl At Ne Corner,L
40.66491533,-73.923093,Rutland Rd & E. 98th St At Sw Corner,3-4
40.66140733,-73.915549,Saratoga Ave & Livonia Ave At Sw Corner,3-4
40.66152633,-73.915314,Saratoga Ave & Livonia Ave At Se Corner,3-4
40.66243833,-73.908773,Rockaway Ave & Livonia Ave At Se Corner,3-4
40.66331533,-73.902812,Powell St & Livonia Ave At Sw Corner,3-4
40.66339833,-73.902475,Powell St & Livonia Ave At Sw Corner,3-4
40.67916386,-73.92187027,Ralph Ave & Mac Dougal St At Ne Corner,A-C
40.67898433,-73.921442,Ralph Ave & Fulton St At Ne Corner,A-C
40.67846033,-73.910971,Rockaway Ave & Fulton St At Nw Corner,A-C
40.68930033,-73.921424,Palmetto St & Broadway At Nw Corner,J-Z
40.68674233,-73.917467,Jefferson Ave & Broadway At Se Corner,J
40.68995733,-73.923097,Linden St & Broadway At Sw Corner,J-Z
40.68587485,-73.91587267,Weirfield St & Broadway At Se Corner,J
40.68266833,-73.90971,Chauncey St & Broadway At Ne Corner,J-Z
40.6756576,-73.90267064,Snediker Ave & New York Ave At Sw Corner,L
40.67539433,-73.902635,Snediker Ave & New York Ave At Sw Corner,L
40.67683433,-73.89918,Georgia Av & Fulton St At Sw Corner,J
40.67428533,-73.896294,Pennsylvania Ave & Liberty Ave At Se Corner,A-C
40.67456533,-73.896331,Pennsylvania Ave & Liberty Ave At Ne Corner,A-C
40.66570833,-73.888626,Van Siclen Ave & Livonia Ave At Nw Corner,3-4
40.67287833,-73.89046,Van Siclen Ave & Pitkin Ave At Nw Corner,A-C
40.67286733,-73.89025,Van Siclen Ave & Pitkin Ave At Ne Corner,A-C
40.67396133,-73.880868,Shepherd Ave & Pitkin Ave At Nw Corner,A-C
40.67426433,-73.880935,Shepherd Ave & Pitkin Ave At Sw Corner,A-C
40.67429333,-73.880747,Shepherd Ave & Pitkin Ave At Ne Corner,A-C
40.68180633,-73.879009,Norwood Ave & Fulton St At Ne Corner,J-Z
40.67526233,-73.871782,Euclid Ave & Pitkin Ave At Se Corner,A-C-S
40.67553033,-73.871758,Euclid Ave & Pitkin Ave At Ne Corner,A-C-S
40.68340733,-73.87277,Pine St & Fulton St At Se Corner,J-Z
40.69891033,-73.918709,Myrtle Ave & Greene Ave At Se Corner,M
40.70432633,-73.919452,Dekalb Ave & Wycoff Ave At Sw Corner,L
40.70439133,-73.919045,Dekalb Ave & Wycoff Ave At Ne Corner,L
40.70325933,-73.917732,Stanhope St & Wycoff Ave At Se Corner,L
40.70355033,-73.917747,Stanhope St & Wycoff Ave At Nw Corner,L
40.70711133,-73.923911,Jefferson St & Wyckoff Ave At Sw Corner,L
40.70604933,-73.922299,Starr St & Wyckoff Ave At Sw Corner,L
40.70630533,-73.922064,Starr St & Wyckoff Ave At Nw Corner,L
40.70450033,-73.902209,Forest Ave & Myrtle Ave At Sw Corner,M
40.67842957,-73.90381713,Fulton St & Van Sinderen Ave At Sw Corner,A-C-J-Z-L
40.68225204,-73.90505925,De Sales Pl & Bushwick Ave At Nw Corner,L
40.74171133,-73.881064,Elmhurst Ave & Broadway At Se Corner,E-M-R
40.76001463,-73.82868057,Main St & Roosevelt Ave At Ne Corner,7-7Express
40.75488108,-73.84537621,126th St & Roosevelt Ave At Nw Corner,7-7Express
40.75472094,-73.84620115,126th St & Roosevelt Ave At Nw Corner,7-7Express
40.74188156,-73.88143287,Elmhurst Ave & Broadway At Sw Corner,E-M-R
40.72972233,-73.86199033,63rd Dr & Queens Blvd At Sw Corner,E-M-R
40.72895813,-73.85967225,64th Rd & Queens Blvd At Se Corner,E-M-R
40.73003658,-73.86260199,63rd Rd & Queens Blvd At Sw Corner,E-M-R
40.69512325,-73.84332306,104th St & Jamaica Ave At Se Corner,J-Z
40.70165788,-73.80248464,158th St & Archer Ave At Sw Corner,E-J-Z
40.70286887,-73.79984884,Parsons Blvd & Archer Ave At Ne Corner,E-J-Z
40.70820908,-73.95822816,Marcy Ave & Broadway At Sw Corner (To Queens And Canarsie Only),J-M-Z
40.69614218,-73.90433753,George St & Wycoff Ave At Ne Corner (To Manhattan Only),L
40.69583888,-73.90546887,Halsey St & Wycoff Ave At Se Corner (To Canarsie Only),L
40.68651161,-73.9746192,Portland Ave & Fulton Ave At Nw Corner (To Manhattan Only),A-C
40.68326814,-73.96673679,Clinton Ave & Fulton Ave At Se Corner (To Queens Only),A-C
40.68010641,-73.94048393,Throop Ave & Fulton St At Nw Corner (To Manhattan Only),A-C
40.67904589,-73.92985242,Utica Ave & Fulton St At Sw Corner,A-C
40.67964109,-73.93230739,Stuyvesant Ave & Fulton St At Nw Corner,A-C
40.6879882,-73.96557301,Washington Ave & Lafayette Ave At Se Corner,G
40.68812196,-73.96763331,Clinton Ave & Lafayette Ave At Ne Corner,G
40.68901478,-73.96019798,Classon Ave & Lafayette Ave At Nw Corner,G
40.68957511,-73.95500775,Bedford Ave & Lafayette Ave At Ne Corner,G
40.68930147,-73.95522175,Bedford Ave & Lafayette Ave At Sw Corner,G
40.70525684,-73.95040877,Union Ave & Broadway At Sw Corner,G
40.70525669,-73.95006853,Union Ave & Broadway At Se Corner,G
40.59267201,-73.97858264,8th St & 86th St At Se Corner,N
40.65523734,-73.96165108,Ocean Ave & Parkside Ave At Ne Corner,B-Q
40.62957072,-73.96185456,15th St & Avenue H At Se Corner,B-Q
40.63265183,-73.94727232,Nostrand Ave & Flatbush Ave At Ne Corner,2-5
40.64990375,-73.97585102,Prospect Expwy & Fort Hamilton Pkwy At Nw Corner,F
40.63063505,-73.97674729,Mcdonald Ave & 18th Ave At Se Corner,F
40.61596398,-74.03079527,5th Ave & 95th St At Ne Corner,R
40.81316833,-73.92968082,Grand Concourse & 138th St At Ne Corner,4-5
40.51339533,-74.25114201,Main St & Ellis St At Sw Corner,SIExpress
40.51553233,-74.24548477,& Ellis St At S Corner,SIExpress
40.74701933,-73.891353,74th St & Roosevelt Ave At Ne Corner,7-E-F-M-R
40.74777933,-73.884044,82nd St & Roosevelt Ave At Nw Corner,7
40.74830933,-73.87646,90th St & Roosevelt Ave At Se Corner,7
40.74857533,-73.87641,90th St & Roosevelt Ave At Ne Corner,7
40.73311133,-73.870237,Woodhaven Blvd & Queens Blvd At Se Corner,E-M-R
40.74931933,-73.869353,Junction Blvd & Roosevelt Ave At Ne Corner,7-7Express
40.74976833,-73.862555,103rd St & Roosevelt Ave At Se Corner,7
40.72607234,-73.85206225,67th Dr & Queens Blvd At Sw Corner,E-M-R
40.72624043,-73.85155899,67th Dr & Queens Blvd At Nw Corner,E-M-R
40.72706233,-73.853184,67th Ave & Queens Blvd At Ne Corner,E-M-R
40.72111433,-73.844021,71st & Queens Blvd At Se Corner,E-F-M-R
40.72192934,-73.8444062,108th St & Queens Blvd At Nw Corner,E-F-M-R
40.71381233,-73.831678,Union Tpke & Queens Blvd At Se Corner,E-F
40.71409433,-73.829928,Union Tpke & Queens Blvd At Ne Corner,E-F
40.71790348,-73.83665814,75th Rd & Queens Blvd At Se Corner (To Jamaica Only),E-F
40.71469533,-73.831995,Union Tpke & Queens Blvd At Nw Corner,E-F
40.71500333,-73.831589,Union Tpke & Queens Blvd At Sw Corner,E-F
40.75941433,-73.830301,Main St & Roosevelt Ave At Sw Corner,7-7Express
40.75960833,-73.830368,Main St & Roosevelt Ave At Nw Corner,7-7Express
40.75952233,-73.829932,Main St & Roosevelt Ave At Se Corner,7-7Express
40.75989833,-73.829171,Main St & Roosevelt Ave At Ne Corner,7-7Express
40.75994333,-73.828998,Main St & Roosevelt Ave At Ne Corner,7-7Express
40.70928266,-73.81971834,Van Wyck Blvd & Queens Blvd At Se Corner (To Jamaica Only),E-F
40.70970333,-73.819629,84th Rd & Queens Blvd At Ne Corner (To Manhattan Only),E-F
40.70492833,-73.811988,144th St & Hillside Ave At Sw Corner,F
40.70041033,-73.807943,Sutphin Blvd & Archer Ave At Sw Corner,E-J-Z
40.70084833,-73.807672,Sutphin Blvd & Archer Ave At Ne Corner,E-J-Z
40.70590233,-73.809641,Sutphin Blvd & Hillside Ave At Ne Corner,F
40.70220633,-73.801826,153rd St & Archer Ave At Ne Corner,E-J-Z
40.70713733,-73.804295,153rd St & Hillside Ave At Se Corner,F
40.70738033,-73.80446,153rd St & Hillside Ave At Ne Corner,F
40.70776133,-73.802937,Parsons Blvd & Hillside Ave At Nw Corner,F
40.70263733,-73.799751,Parsons Blvd & Archer Ave At Ne Corner,E-J-Z
40.70981533,-73.794701,168th St & Hillside Ave At Sw Corner,F
40.71051333,-73.793023,169th St & Hillside Ave At Sw Corner,F
40.71058233,-73.792857,169th St & Hillside Ave At Se Corner,F
40.71250033,-73.785089,179th St & Hillside Ave At Nw Corner,F
40.71223433,-73.78498,179th St & Hillside Ave At Sw Corner,F
40.71265333,-73.78442,179th St & Hillside Ave At Ne Corner,F
40.71269933,-73.784266,179th St & Hillside Ave At Ne Corner,F
40.71256333,-73.783622,179th Pl & Hillside Ave At Sw Corner,F
40.71294033,-73.783179,180th St & Hillside Ave At Nw Corner,F
40.71320033,-73.782215,Midland Pkwy & Hillside Ave At Ne Corner,F
40.58049533,-73.837489,Beach 116th St & Wainwright Ct At Ne Corner,A-S
40.58339833,-73.827546,Beach 106th St & Rockaway Frwy At Sw Corner,A-S
40.58319733,-73.827124,Beach 106th St & Rockaway Frwy At Sw Corner,A-S
40.58369533,-73.826412,Beach 106th St & Rockaway Frwy At Nw Corner,A-S
40.58532833,-73.82018,Beach 98th St & Rockaway Frwy At Sw Corner,A-S
40.58800933,-73.814204,Beach 90th St & Rockaway Frwy At Ne Corner,A-S
40.58813233,-73.813813,Beach 89th St & Rockaway Frwy At Nw Corner,A-S
40.59067433,-73.79778,Beach 67th St & Rockaway Frwy At Nw Corner,A
40.59088133,-73.79615,Beach 67th St & Rockaway Frwy At Sw Corner,A
40.59222333,-73.789585,Beach 60th St & Rockaway Frwy At Se Corner,A
40.59250733,-73.789443,Beach 60th St & Rockaway Frwy At Ne Corner,A
40.59250633,-73.789069,Beach 59th Sr & Rockaway Frwy At Nw Corner,A
40.59221833,-73.787349,Beach 59th St & Rockaway Frwy At Se Corner,A
40.59288533,-73.775619,Beach 44th St & Edgemere Ave At Sw Corner,A
40.59313733,-73.775661,Beach 44th St & Edgemere Ave At Nw Corner,A
40.59552933,-73.768288,Beach 36th & Edgemere Ave At Ne Corner,A
40.59566033,-73.768012,Beach 35th & Rockaway Frwy At Nw Corner,A
40.67683433,-73.89918,Georgia Av & Fulton St At Sw Corner,J
40.68731737,-73.97475741,South Portland Ave & Fulton St At Nw Corner,G
40.68708062,-73.97470891,South Portland Ave & Fulton St At Sw Corner,G
40.67673533,-73.865491,Grant Ave & Pitkin Ave At Ne Corner,A-S
40.67917033,-73.860063,77th St & Liberty Ave At Se Corner,A-S
40.68961533,-73.873579,Crescent St & Jamaica Ave At Ne Corner,J
40.69264833,-73.859079,85th St & Jamaica Ave At Ne Corner,J
40.66021733,-73.830438,103rd St & 159th Ave At Se Corner,A
40.67929733,-73.857687,80th St & Liberty Ave At Se Corner,A-S
40.65901428,-73.89933376,Van Sinderen Ave & New Lots Ave At Sw Corner,L
40.66861094,-73.90192123,Lirr Bay Ridge Divide & Sutter Ave At Nw Corner,L
40.68712544,-73.97671091,Fort Greene Pl & Lafayette Ave At Nw Corner,G
40.67989433,-73.852707,86th St & Liberty Ave At Nw Corner,A-S
40.68037433,-73.845072,94th St & Liberty Ave At Nw Corner,A-S
40.69239533,-73.858947,85th St & Jamaica Ave At Se Corner,J
40.66940933,-73.834756,99th Pl & Hawtree St At Ne Corner,A
40.68155333,-73.83881,102nd St & Liberty Ave At Nw Corner,A-S
40.68187633,-73.836839,104th St & Liberty Ave At Se Corner,A-S
40.69679633,-73.837027,111th St & Jamaica Blvd At Ne Corner,J
40.68462033,-73.831047,111th St & Liberty Ave At Se Corner,A-S
40.68489633,-73.831128,111th St & Liberty Ave At Ne Corner,A-S
40.70023933,-73.829313,121st St & Jamaica Ave At Sw Corner,J-Z
40.69703001,-73.83713367,111th St & Jamaica Blvd At Se Corner,J
40.70061233,-73.827238,123rd St & Jamaica Ave At Se Corner,J-Z
40.61603433,-74.031373,4th Ave & 95th St At Sw Corner,R
40.61759533,-74.030647,4th Ave & 93th St At Sw Corner,R
40.62262333,-74.028554,4th Ave & 86th St At Sw Corner,R
40.62346933,-74.028203,4th Ave & 85th St At Sw Corner,R
40.62953933,-74.025735,4th Ave & 77th St At Nw Corner,R
40.60768933,-74.001898,18th Ave & 85th St At Se Corner,D
40.60457934,-73.998444,20th Ave & 86th St At Sw Corner,D
40.61401857,-74.00028499,New Utrecht Ave & 77th St At Ne Corner,D
40.60463933,-73.998022,20th Ave & 86th St At Ne Corner,D
40.60192233,-73.994036,Bay Pkwy & 86th St At Sw Corner,D
40.60211933,-73.993872,Bay Pkwy & 86th St At Nw Corner,D
40.60194633,-73.993583,Bay Pkwy & 86th St At Ne Corner,D
40.63056033,-74.00414,11th Ave & 62nd St At Nw Corner,N
40.62563333,-73.996868,New Utrecht Ave & 62nd St At Se Corner,D-N
40.62711333,-73.996942,14th Ave & 61st St At Nw Corner,D-N
40.62736933,-73.996708,14th Ave & 61st St At Nw Corner,D-N
40.63154933,-73.995615,New Utrecht Ave & 55th St At Sw Corner,D
40.63156933,-73.995289,New Utrecht Ave & 55th St At Ne Corner,D
40.57633333,-73.980951,Stillwell Ave & Surf Ave At Ne Corner,D-F-N-Q
40.57577796,-73.97688031,8th St & Surf Ave At Nw Corner,F-Q
40.58057586,-73.97444291,West 6th St & Neptune Ave At Ne Corner,F
40.58799533,-73.983731,Stillwell Ave & Bay 50th St At Sw Corner,D
40.58832933,-73.983794,Stillwell Ave & Bay 50th St At Sw Corner,D
40.58841833,-73.983513,Stillwell Ave & Bay 50th St At Se Corner,D
40.59776433,-73.987191,25th Ave & 86th St At Se Corner,D
40.59796733,-73.986972,25th Ave & 86th St At Ne Corner,D
40.59051033,-73.974255,Mcdonald Ave & Avenue X At Nw Corner,F
40.59643933,-73.97894,8th St & Avenue U At Ne Corner,N
40.57657233,-73.969336,Ocean Pkwy & Brighton Beach Rd At Nw Corner,Q
40.57657833,-73.969016,Ocean Pkwy & Brighton Beach Rd At Nw Corner,Q
40.57736833,-73.961891,Branch 6 St & Brighton Beach Rd At Sw Corner,B-Q
40.57766033,-73.961961,Branch 6 St & Brighton Beach Rd At Nw Corner,B-Q
40.57770733,-73.961719,Branch 6 St & Brighton Beach Rd At Nw Corner,B-Q
40.57772533,-73.96018,Branch 7 St & Brighton Beach Rd At Se Corner,B-Q
40.59509133,-73.973652,Mcdonald Ave & Gravesend Neck Rd At Sw Corner,F
40.59684753,-73.9734499,Mcdonald Ave & Avenue U At Sw Corner,F
40.59682953,-73.9731529,Mcdonald Ave & Avenue U At Se Corner,F
40.60321233,-73.980199,7th St & Highlawn Ave At Sw Corner,N
40.61431933,-73.974184,Mcdonald Ave & Avenue N At Nw Corner,F
40.61432433,-73.973871,Mcdonald Ave & Avenue N At Ne Corner,F
40.61736033,-73.984902,20th Ave & 64th St At Ne Corner,N
40.61614133,-73.974245,Mcdonald Ave & Avenue M At Se Corner,F
40.62085333,-73.975502,Mcdonald Ave & Bay Pkwy At Sw Corner,F
40.62115733,-73.975479,Mcdonald Ave & Bay Pkwy At Nw Corner,F
40.60219633,-73.972359,Mcdonald Ave & Avenue S At Ne Corner,F
40.60403133,-73.972413,Mcdonald Ave & Kings Hwy At Sw Corner,F
40.60860633,-73.973115,Mcdonald Ave & Avenue P At Sw Corner,F
40.60877686,-73.9579813,15th St & Kings Hwy At Se Corner,B-Q
40.60891133,-73.957698,15th St & Kings Hwy At Se Corner,B-Q
40.61801875,-73.95946319,15th St & Avenue M At Se Corner,B-Q
40.62514111,-73.96084244,15th St & Avenue J At Se Corner,B-Q
40.58576833,-73.954296,14th St & Voorhies Ave At Ne Corner,B-Q
40.59502033,-73.95512,15th St & Gravesend Neck Rd At Ne Corner,B-Q
40.59894733,-73.956064,15th St & Avenue U At Ne Corner,B-Q
40.63476333,-74.023602,4th Ave & Bay Ridge Ave At Nw Corner,R
40.63549633,-74.02329,4th Ave & 68th St At Nw Corner,R
40.64162033,-74.017873,4th Ave & 59th St At Nw Corner,N-R
40.64144233,-74.017615,4th Ave & 59th St At Ne Corner,N-R
40.64157933,-74.017482,4th Ave & 59th St At Ne Corner,N-R
40.63444011,-74.01080707,8th Ave & 62nd St At Nw Corner,N
40.64455833,-74.014386,4th Ave & 53rd St At Se Corner,N-R
40.64465333,-74.014581,4th Ave & 53rd St At Sw Corner,N-R
40.64941333,-74.009702,4th Ave & 45th St At Nw Corner,N-R
40.64959733,-74.009515,4th Ave & 45th St At Nw Corner,N-R
40.64950833,-74.009249,4th Ave & 45th St At Ne Corner,N-R
40.64033633,-73.99447,New Utrecht Ave & 45th St At Nw Corner,D
40.64118833,-73.994079,New Utrecht Ave & 44th St At Ne Corner,D
40.65449233,-74.004488,4th Ave & 36th St At Nw Corner,D-N-R
40.66047833,-73.998231,4th Ave & 25th St At Sw Corner (To Bay Ridge And Coney Island Only),D-N-R
40.66529133,-73.993232,4th Ave & Prospect Ave At Se Corner (To Bay Ridge And Coney Island Onl,D-N-R
40.66510733,-73.992959,4th Ave & Prospect Ave At Sw Corner (To Manhattan Only),D-N-R
40.67461614,-73.99732155,Smith St & 9th St At Ne Corner,F-G
40.63542433,-73.978202,Mcdonald Ave & Ditmas Ave At Sw Corner,F
40.63699633,-73.97817,Mcdonald Ave & Cortelyou Rd At Se Corner,F
40.64263133,-73.979545,Mcdonald Ave & Church Ave At Sw Corner,F
40.64494233,-73.979998,Mcdonald Ave & Albemarle Rd At Sw Corner,F
40.65180433,-73.976093,Prospect Ave & Greenwood Ave At Ne Corner,F
40.65260833,-73.975913,Prospect Ave & Reeve Pl At Se Corner,F
40.66015191,-73.97968335,Prospect Park West & 16th St At Ne Corner,F
40.65944733,-73.979962,Howard Pl & Windsor Pl At Ne Corner,F
40.66076333,-73.978992,Prospect Park West & Prospect Park Southwest At Ne Corner,F
40.66143033,-73.979672,Prospect Park West & 14th St At Sw Corner,F
40.65414202,-73.96192731,Ocean Ave & Woodruff Ave At Nw Corner,B-Q
40.67054533,-73.988765,4th Ave & 9th St At Nw Corner,D-F-G-N-R
40.67040733,-73.98846,4th Ave & 9th St At Ne Corner,D-F-G-N-R
40.66667233,-73.981454,7th Ave & 9th St At Se Corner,F
40.66549233,-73.979014,8th Ave & 9th St At Se Corner,F
40.68606733,-73.974294,Portland Ave & Fulton Ave At Se Corner (To Queens Only),A-C
40.68647333,-73.974362,Portland Ave & Fulton Ave At Ne Corner (To Manhattan Only),A-C
40.68572933,-73.973431,Oxford St & Fulton Ave At Sw Corner (To Queens Only),A-C
40.85855233,-73.934408,Fort Washington Ave & Margaret Corbin Dr At Se Corner,A
40.86118333,-73.92511,Hillside Ave & Nagle Ave At Sw Corner,1
40.86118733,-73.925078,Hillside Ave & Nagle Ave At Sw Corner,1
40.86524833,-73.927279,Broadway & Dyckman St At Se Corner,A
40.86529633,-73.927411,Broadway & Dyckman St At Se Corner,A
40.86543433,-73.92699,Broadway & Dyckman St At Ne Corner,A
40.86779933,-73.92142,Broadway & 207th St At Sw Corner,A
40.86763233,-73.920974,Broadway & 207th St At Sw Corner,A
40.86425733,-73.918938,10th Ave & 207th St At Se Corner (Uptown Only),1
40.86470033,-73.9189,10th Ave & 207th St At Nw Corner (Downtown Only),1
40.86828833,-73.919611,Broadway & Isham St At Nw Corner,A
40.86939133,-73.915488,10th Ave & 215th St At Sw Corner (Downtown Only),1
40.86930933,-73.91523,10th Ave & 215th St At Se Corner (Uptown Only),1
40.86972933,-73.914954,10th Ave & 215th St At Ne Corner (Uptown Only),1
40.87445433,-73.910542,Broadway & 225th St At Nw Corner (Downtown Only),1
40.87877533,-73.905024,Broadway & 231st St At Sw Corner (To Manhattan Only),1
40.87869433,-73.904821,Broadway & 231st St At Se Corner (To Van Cortlandt Pk Only),1
40.87916833,-73.904751,Broadway & 231st St At Nw Corner (To Manhattan Only),1
40.88483533,-73.900917,Broadway & 238th St At Sw Corner (To Manhattan Only),1
40.88519133,-73.900457,Broadway & 238th St At Se Corner (To Van Cortlandt Pk Only),1
40.89015733,-73.898247,Broadway & 242nd St At Nw Corner,1
40.88997333,-73.897781,Broadway & 242nd St At Ne Corner,1
40.74737297,-73.94395262,Hunter St & 44th Ave At Sw Corner,E-G-M
40.74818629,-73.94713042,21st St & 44th Ave At Ne Corner,E-G-M
40.7462415,-73.94534122,23rd St & 45th Rd At Ne Corner,7-7Express
40.77322975,-73.98207866,Broadway & 66th St At Se Corner,1-2
40.77884767,-73.98173535,Broadway & 72nd St At Ne Corner,1-2-3
40.77935593,-73.95555269,Lexington Ave & 86th St At Se Corner (Uptown Only),4-5-6-6Express
40.77949594,-73.95535156,Lexington Ave & 86th St At Ne Corner (Uptown Only),4-5-6-6Express
40.85314111,-73.93737685,Fort Washington Ave & 185th St At Se Corner,A
40.8564663,-73.93265195,Broadway & 190th St At Ne Corner,1
40.81070033,-73.926984,Lincoln Ave & 138th St At Se Corner,6-6Express
40.81085233,-73.926739,3rd Ave & 138th St At Ne Corner,6-6Express
40.81003233,-73.925385,Alexander Ave & 138th St At Sw Corner,6-6Express
40.81028033,-73.925372,Alexander Ave & 138th St At Nw Corner,6-6Express
40.81832033,-73.927628,Grand Concourse & 149th St At Sw Corner,2-4-5
40.81839133,-73.92759,Grand Concourse & 149th St At Sw Corner,2-4-5
40.81840533,-73.927101,Grand Conccourse & 149th St At Se Corner,2-4-5
40.82754533,-73.9262,River Ave & 161st St At Sw Corner,4-B-D
40.82778633,-73.92617,River Ave & 161st St At Sw Corner,4-B-D
40.82774033,-73.925839,River Ave & 161st St At Se Corner,4-B-D
40.82796333,-73.926042,River Ave & 161st St At Nw Corner,4-B-D
40.82812986,-73.92556098,River Ave & 161st St At Ne Corner,4-B-D
40.80742933,-73.919232,Brook Ave & 138th St At Se Corner (To Pelham Bay Pk Only),6
40.80534333,-73.914195,Cypress Ave & 138th St At Sw Corner (To Pelham Bay Pk Only),6
40.80530433,-73.913628,Cypress Ave & 138th St At Ne Corner (To Manhattan Only),6
40.80539333,-73.913848,Cypress Ave & 138th St At Ne Corner (To Manhattan Only),6
40.81586033,-73.917727,3rd Ave & 149th St At Se Corner (Northbound Only),2-5
40.81625333,-73.917891,Melrose Ave & 149th St At Nw Corner (To Manhattan Only),2-5
40.82735533,-73.924168,Walton Ave & 161st St At Nw Corner,4-B-D
40.82751033,-73.924093,Walton Ave & 161st St At Nw Corner,4-B-D
40.80817933,-73.908065,Southern Blvd & St Mary's St At Sw Corner (To Manhattan Only),6
40.80832233,-73.908002,Southern Blvd & St Mary's St At Nw Corner (To Manhattan Only),6
40.80834033,-73.907618,Southern Blvd & St Mary's St At Ne Corner (To Pelham Bay Pk Only),6
40.81184833,-73.904207,Southern Blvd & 149th St At Se Corner (To Pelham Bay Pk Only),6
40.82767122,-73.92631599,River Ave & 161st St At Sw Corner,4-B-D
40.82758845,-73.92636251,River Ave & 161st St At Sw Corner,4-B-D
40.5994409,-73.7621746,Beach 25th St & Rockaway Frwy At Nw Corner,A
40.81237233,-73.903806,Southern Blvd & 149th St At Nw Corner (To Manhattan Only),6
40.81634933,-73.907836,Jackson Ave & 152nd St At Ne Corner (Northbound Only),2-5
40.81662933,-73.907825,Jackson Ave & Westchester Ave At Ne Corner (To Manhattan Only),2-5
40.81963433,-73.901987,Westchester & 160th St At Sw Corner (To Manhattan Only),2-5
40.81956033,-73.901405,Prospect Ave & Longwood Ave At Ne Corner (Northbound Only),2-5
40.81990233,-73.90168,Prospect Ave & 160th St At Nw Corner (To Manhattan Only),2-5
40.81632733,-73.896486,Southern Blvd & Longwood Ave At Sw Corner (To Manhattan Only),6
40.82389454,-73.89299849,Westchester Ave & Simpson St At Sw Corner (Northbound Only),2-5
40.82417733,-73.893114,Westchester Ave & Simpson St At Nw Corner (To Manhattan Only),2-5
40.82440233,-73.892715,Westchester Ave & Simpson St At Ne Corner (To Manhattan Only),2-5
40.82064133,-73.891575,Hunts Point Ave & 163rd St At Sw Corner,6-6Express
40.82079433,-73.890398,Hunts Point Ave & 163rd St At Se Corner,6-6Express
40.82742333,-73.886275,Whitlock Ave & Westchester Ave At Sw Corner,6
40.82847333,-73.879238,Elder Ave & Westchester Ave At Sw Corner,6
40.82873333,-73.879109,Elder Ave & Westchester Ave At Ne Corner,6
40.83586533,-73.921404,River Ave & 167th St At Ne Corner,4
40.83577133,-73.921118,River Ave & 167th St At Nw Corner,4
40.83291233,-73.918822,Grand Concourse & Mcclellan St At Se Corner,B-D
40.83311133,-73.919399,Grand Concourse & Mcclellan St At Sw Corner,B-D
40.83428633,-73.917562,Grand Concourse & 167th St At Se Corner,B-D
40.83478833,-73.917838,Grand Concourse & 167th St At Nw Corner,B-D
40.84001433,-73.917993,Jerome Ave & 170th St At Sw Corner,4
40.83992533,-73.917778,Jerome Ave & 170th St At Se Corner,4
40.83866433,-73.914165,Grand Concourse & 170th St At Sw Corner,B-D
40.83844433,-73.913606,Grand Concourse & 170th St At Se Corner,B-D
40.84009733,-73.913333,Grand Concourse & 171st St At Nw Corner,B-D
40.84470033,-73.914647,Jerome Ave & Cross Bronx Expwy At Sw Corner,4
40.84485433,-73.911606,Grand Concourse & 174th St At Nw Corner,B-D
40.84487733,-73.911284,Grand Concourse & 174th St At Nw Corner,B-D
40.84832233,-73.91208,Jerome Ave & 176th St At Nw Corner,4
40.84854633,-73.911584,Jerome Ave & 176th St At Se Corner,4
40.84629733,-73.909144,Grand Concourse & 175th St At Ne Corner,B-D
40.83035133,-73.89202,Southern Blvd & Freeman St At Nw Corner (To Manhattan Only),2-5
40.85331333,-73.907977,Jerome Ave & Burnside Ave At Sw Corner,4
40.84995733,-73.905953,Grand Concourse & Echo Pl At Sw Corner,B-D
40.85006233,-73.90586,Grand Concourse & Echo Pl At Nw Corner,B-D
40.85112133,-73.90501,Grand Concourse & 179th St At Sw Corner,B-D
40.85112833,-73.904335,Grand Concourse & 179th St At Ne Corner,B-D
40.85359633,-73.907393,Jerome Ave & Burnside Ave At Se Corner,4
40.85594133,-73.900568,Grand Concourse & 182nd St At Se Corner,B-D
40.85621733,-73.901002,Grand Concourse & 182nd St At Nw Corner,B-D
40.85835533,-73.904087,Jerome Ave & 183rd St At Sw Corner,4
40.85849533,-73.903985,Jerome Ave & 183rd St At Nw Corner,4
40.86141133,-73.898028,Grand Concourse & 188th St At Sw Corner,B-D
40.86114733,-73.897424,Grand Concourse & 188th St At Se Corner,B-D
40.86264433,-73.90138,Jerome Ave & Fordham Rd At Sw Corner,4
40.86264033,-73.901006,Jerome Ave & Fordham Rd At Se Corner,4
40.86229633,-73.896885,Grand Concourse & Fordham Rd At Se Corner,B-D
40.86266534,-73.896629,Grand Concourse & Fordham Rd At Ne Corner,B-D
40.86758133,-73.897172,Jerome Ave & Kingsbridge Rd At Ne Corner,4
40.86773233,-73.897034,Jerome Ave & Kingsbridge Rd At Ne Corner,4
40.86618133,-73.89430567,Grand Concourse & Kingsbridge Rd At Ne Corner,B-D
40.86612733,-73.893982,Grand Concourse & Kingsbridge Rd At Ne Corner,B-D
40.86774333,-73.892789,Grand Concourse & 196th St At Se Corner,B-D
40.83010633,-73.891535,Southern Blvd & Freeman St At Se Corner (Northbound Only),2-5
40.83020333,-73.891474,Southern Blvd & Freeman St At Ne Corner (Northbound Only),2-5
40.83753633,-73.8878,Boston Rd & 174th St At Nw Corner (To Manhattan Only),2-5
40.83724133,-73.88756,Boston Rd & 174th St At Se Corner (Northbound Only),2-5
40.84023233,-73.880401,Boston Rd & E Tremont Ave At Nw Corner,2-5
40.84035233,-73.879828,Boston Rd & E Tremont Ave At Ne Corner,2-5
40.84070533,-73.879484,Boston Rd & 178th St At Se Corner,2-5
40.82938133,-73.874654,Morrison Ave & Westchester Ave At Sw Corner,6
40.82961833,-73.874726,Morrison Ave & Westchester Ave At Nw Corner,6
40.83177633,-73.867189,St Lawrence Ave & Westchester Ave At Ne Corner,6
40.83334233,-73.860994,Metropolitan Ave & Westchester Ave At Nw Corner,6-6Express
40.84886133,-73.86834,Birchall Ave & Sagamore St At Se Corner,2-5
40.84905133,-73.868258,Birchall Ave & Sagamore St At Ne Corner,2-5
40.85644934,-73.867767,White Plains Rd & Pelham Pkwy At Sw Corner,2-5
40.85804133,-73.867718,White Plains Rd & Pelham Pkwy At Nw Corner,2-5
40.85804933,-73.867467,White Plains Rd & Pelham Pkwy At Ne Corner,2-5
40.87018876,-73.84581947,Seymour Ave & Gun Hill Rd At Se Corner,5
40.87352833,-73.889754,Jerome Ave & Bedford Park Blvd At Sw Corner,4
40.87248833,-73.887898,Grand Concourse & Bedford Park Blvd At Nw Corner,B-D
40.87401633,-73.886925,Grand Concourse & 203rd St At Nw Corner,B-D
40.87505633,-73.879351,Bainbridge Ave & 205th St At Ne Corner,D
40.87424133,-73.877525,Perry Ave & 205th St At Nw Corner,D
40.87934633,-73.885328,Jerome Ave & Mosholu Pkwy At Sw Corner,4
40.87935333,-73.88496,Jerome Ave & Mosholu Pkwy At Se Corner,4
40.87949333,-73.885159,Jerome Ave & Mosholu Pkwy At Sw Corner,4
40.88017633,-73.88437,Jerome Ave & Mosholu Pkwy At Nw Corner,4
40.88016033,-73.884007,Jerome Ave & Mosholu Pkwy At Ne Corner,4
40.88673733,-73.87812,Jerome Ave & Bainbridge Ave At Se Corner,4
40.87155733,-73.867292,White Plains Rd & Burke Ave At Nw Corner,2-5
40.87136233,-73.867021,White Plains & Burke Ave At Se Corner,2-5
40.87787614,-73.8664345,White Plains Rd & 211th St At Sw Corner,2-5
40.88369333,-73.862923,White Plains Rd & 219th St At Nw Corner,2-5
40.88779533,-73.860622,White Plains Rd & 225th St At Sw Corner,2-5
40.87963,-73.8379144,Baychester Ave & Tillotson Ave At Nw Corner,5
40.88771733,-73.860387,White Plains Rd & 225th St At Se Corner,2-5
40.83434433,-73.851552,Castle Hill Ave & Westchester Ave At Ne Corner,6-6Express
40.83694433,-73.846734,Westchester Ave & Zerega Ave At Nw Corner,6-6Express
40.84020933,-73.842784,Westchester Ave & Ferris Pl At Sw Corner,6-6Express
40.84387833,-73.83651,Westchester Ave & Middletown Rd At Nw Corner,6-6Express
40.84681233,-73.832401,Edison Ave & Westchester Ave At Se Corner,6-6Express
40.84721233,-73.832287,Edison Ave & Westchester Ave At Ne Corner,6-6Express
40.85273907,-73.82715221,Burr Ave & Westchester Ave At Se Corner,6-6Express
40.89326333,-73.857274,White Plains Rd & 233rd St At Se Corner,2-5
40.89832433,-73.854233,White Plains Rd & Nereid Ave At Se Corner,2-5
40.90328333,-73.850321,White Plains Rd & 241st St At Se Corner,2
40.88978927,-73.89840377,Broadway & 242nd St At Nw Corner,1
40.81596274,-73.91798789,Melrose Ave & 149th St At Sw Corner (Northbound Only),2-5
40.81625442,-73.91779664,Melrose Ave & 149th St At Nw Corner (To Manhattan Only),2-5
40.81588105,-73.9175224,3rd Ave & 149th St At Se Corner (Northbound Only),2-5
40.82202461,-73.89673164,Intervale Ave & Westchester Ave At Se Corner,2-5
40.82437247,-73.89284923,Westchester Ave & Simpson St At Ne Corner (To Manhattan Only),2-5
40.84143707,-73.87284686,Morris Park Ave & 180th St At Nw Corner,2-5
40.88799143,-73.83122374,Dyre Ave & Light St At Ne Corner,5
40.82801714,-73.92562652,River Ave & 161st St At Ne Corner,4-B-D
40.74694333,-73.892426,73rd St & Broadway At Sw Corner,7-E-F-M-R
40.73041733,-73.862373,63rd Rd & Queens Blvd At Ne Corner,E-M-R
40.74597433,-73.890193,75th St & Broadway At Se Corner,7-E-F-M-R
40.73589233,-73.876893,54th St & Queens Blvd At Se Corner,E-M-R
40.73629433,-73.876426,54th St & Queens Blvd At Ne Corner,E-M-R
40.73735433,-73.877191,Broadway & Queens Blvd At Se Corner,E-M-R
40.69251741,-73.9911897,Court St & Joralemon St At Sw Corner,2-3-4-5-N-R
40.69239628,-73.9874044,Jay St & Willoughby St At Nw Corner,A-C-F
40.69230642,-73.98750832,Jay St & Willoughby St At Nw Corner,A-C-F
40.69296064,-73.98734762,Jay St & Metrotech Walk At Sw Corner,A-C-F
40.69306846,-73.98716814,Jay St & Metrotech Walk At Se Corner,A-C-F
40.69160903,-73.987414,Jay St & Fulton St At Nw Corner,A-C-F
40.6915551,-73.98726288,Jay St & Fulton St At Ne Corner,A-C-F
40.6897832,-73.98131665,Flatbush Ave & De Kalb Ave At Se Corner,B-D-N-Q-R
40.68495726,-73.97788608,Ashland Pl & Hanson Pl At Se Corner,2-3-4-5-B-D-N-Q-R
40.67525323,-73.97091864,Flatbush Ave & Plaza Street East At Se Corner,2-3-4
40.67520615,-73.97112089,Flatbush Ave & Plaza Street West At Nw Corner,2-3-4
40.67448574,-73.95787512,Franklin Ave & Park Pl At Nw Corner,S
40.68119898,-73.95560891,Franklin Ave & Fulton St At Ne Corner,A-C-S
40.68803123,-73.98047666,Flatbush Ave & Livingston St At Nw Corner,2-3-4-5
40.68816573,-73.98033388,Flatbush Ave & Livingston St At Ne Corner,2-3-4-5
40.74257333,-73.954267,Vernon Blvd & 50th Ave At Sw Corner (To Flushing Only),7-7Express
40.74263933,-73.954235,Vernon Blvd & 50th Ave At Sw Corner (To Flushing Only),7-7Express
40.74275233,-73.953836,Vernon Blvd & 50th Ave At Ne Corner (To Manhattan Only),7-7Express
40.74234033,-73.95274,Jackson Ave & 50th Ave At Se Corner (To Flushing Only),7-7Express
40.74248333,-73.952473,Jackson Ave & 50th Ave At Ne Corner (To Manhattan Only),7-7Express
40.74461933,-73.949018,Jackson Ave & 47th Ave At Sw Corner,G
40.74474533,-73.948658,Jackson Ave & 47th Ave At Nw Corner,G
40.74629733,-73.945686,23rd St & 45th Rd At Nw Corner,7-7Express
40.74623133,-73.945015,Jackson Ave & 45th Rd At Nw Corner,E-G-M
40.74672233,-73.943781,Jackson Ave & 45th Ave At Nw Corner,E-G-M
40.74794733,-73.947211,21st St & 44th Ave At Se Corner,E-G-M
40.74458633,-73.931828,33rd St & Queens Blvd At Nw Corner,7
40.74456233,-73.93157,33rd St & Queens Blvd At Se Corner,7
40.74472333,-73.931515,33rd St & Queens Blvd At Ne Corner,7
40.74466333,-73.930888,34th St & Queens Blvd At Nw Corner,7
40.75027533,-73.940197,Queens Plaza South & 27th St At Sw Corner,7-7Express-N-Q
40.74870933,-73.937347,Jackson Ave & Queens Blvd At Se Corner,E-M-R
40.74957733,-73.936094,Northern Blvd & 41st Ave At Se Corner,E-M-R
40.75251833,-73.932814,31st St & 39th Ave At Se Corner,N-Q
40.75189933,-73.930583,34th St & Northern Blvd At Sw Corner (To Jamaica Only),E-M-R
40.75222033,-73.928771,35th St & 38th Ave At Ne Corner (To Manhattan And Brooklyn Only),E-M-R
40.75195333,-73.927144,36th St & Northern Blvd At Se Corner (To Jamaica Only),E-M-R
40.75649633,-73.929977,31st St & 36th Ave At Sw Corner,N-Q
40.75680433,-73.929719,31st St & 36th Ave At Nw Corner,N-Q
40.76177333,-73.925399,31st St & Broadway At Se Corner,N-Q
40.74373633,-73.924467,40th St & Queens Blvd At Sw Corner (To Flushing Only),7
40.74393233,-73.924428,40th St & Queens Blvd At Nw Corner (To Manhattan Only),7
40.74388433,-73.92406,40th St & Queens Blvd At Ne Corner (To Manhattan Only),7
40.74311233,-73.918892,46th St & Queens Blvd At Sw Corner,7
40.74305233,-73.918548,46th St & Queens Blvd At Se Corner,7
40.74296333,-73.918015,47th St & Queens Blvd At Sw Corner,7
40.74318933,-73.917944,47th St & Queens Blvd At Nw Corner,7
40.74413348,-73.91302325,52nd St & Roosevelt Ave At Nw Corner,7
40.75811733,-73.919829,Steinway St & Broadway At Sw Corner,E-M-R
40.75828533,-73.919418,Steinway St & Broadway At Se Corner,E-M-R
40.75686133,-73.914255,46th St & Broadway At Nw Corner (To Manhattan And Brooklyn Only),E-M-R
40.75602933,-73.91218,48th St & Newtown Rd At Ne Corner (To Manhattan And Brooklyn Only),E-M-R
40.74571783,-73.90306341,61st St & Roosevelt Ave At Ne Corner,7-7Express
40.75310133,-73.907105,54th St & Northern Blvd At Nw Corner (To Jamaica Only),E-M-R
40.75342833,-73.906847,54th St & Broadway At Sw Corner (To Manhattan And Brooklyn Only),E-M-R
40.74931033,-73.897316,65th St & Broadway At Ne Corner,E-M-R
40.76667133,-73.9214,31st St & 30th Ave At Se Corner,N-Q
40.76697233,-73.921149,31st St & 30th Ave At Ne Corner,N-Q
40.77030133,-73.917997,31st St & Hoyt Ave South At Sw Corner,N-Q
40.77104533,-73.917124,31st St & Hoyt Ave North At Nw Corner,N-Q
40.77088133,-73.916897,31st St & Hoyt Ave North At Ne Corner,N-Q
40.77479633,-73.912165,31st St & 23rd Ave At Ne Corner,N-Q
40.77517833,-73.912039,31st St & 23rd Ave At Nw Corner,N-Q
40.75419533,-73.942521,21st St & 41st Ave At Nw Corner,F
40.75432233,-73.942374,21st St & 41st Ave At Nw Corner,F
40.77291564,-73.98240667,Broadway & 65th St At Sw Corner,1-2
40.77388333,-73.982466,Broadway & 66th St At Sw Corner,1-2
40.77842933,-73.981932,Broadway & 72nd St At Se Corner,1-2-3
40.77494033,-73.977144,Central Park West & 70th St At Sw Corner,A-C-B
40.77643133,-73.975977,Central Park West & 72nd St At Nw Corner,A-C-B
40.78378433,-73.980265,Broadway & 79th St At Sw Corner (Downtown Only),1-2
40.78405533,-73.980065,Broadway & 79th St At Nw Corner (Downtown Only),1-2
40.78396433,-73.979672,Broadway & 79th St At Ne Corner (Uptown Only),1-2
40.78812433,-73.976321,Broadway & 86th St At Se Corner (Uptown Only),1-2
40.78850433,-73.97669,Broadway & 86th St At Nw Corner (Downtown Only),1-2
40.76777633,-73.964495,Lexington Ave & 68th St At Sw Corner,4-6-6Express
40.76799633,-73.964188,Lexington Ave & 68th St At Nw Corner,4-6-6Express
40.76786733,-73.963887,Lexington Ave & 68th St At Ne Corner,4-6-6Express
40.77349333,-73.959659,Lexington Ave & 77th St At Se Corner (Uptown Only),4-6-6Express
40.77363133,-73.959659,Lexington Ave & 77th St At Ne Corner (Uptown Only),4-6-6Express
40.77366933,-73.960135,Lexington Ave & 77th St At Sw Corner (Downtown Only),4-6-6Express
40.77363633,-73.96006,Lexington Ave & 77th St At Sw Corner (Downtown Only),4-6-6Express
40.77377933,-73.960041,Lexington Ave & 77th St At Nw Corner (Downtown Only),4-6-6Express
40.78196833,-73.971999,Central Park West & 81st St At Sw Corner,A-C-B
40.78224333,-73.971749,Central Park West & 81st St At Nw Corner,A-C-B
40.78529233,-73.96963,Central Park West & 86th St At Sw Corner,A-C-B
40.78547734,-73.969461,Central Park West & 86th St At Nw Corner,A-C-B
40.78675033,-73.968442,Central Park West & 88th St At Nw Corner,A-C-B
40.79337233,-73.97297,Broadway & 96th St At Sw Corner,1-2-3
40.79309633,-73.972695,Broadway & 96th St At Se Corner,1-2-3
40.79447833,-73.972155,Broadway & 96th St At Sw Corner,1-2-3
40.79432033,-73.971791,Broadway & 96th St At Se Corner,1-2-3
40.79169833,-73.965015,Central Park West & 96th St At Sw Corner,A-C-B
40.79231233,-73.964406,Central Park West & 97th St At Sw Corner,A-C-B
40.79930033,-73.968678,Broadway & 103rd St At Nw Corner,1
40.79922333,-73.968271,Broadway & 103rd St At Ne Corner,1
40.79939033,-73.968622,Broadway & 103rd St At Nw Corner,1
40.80397633,-73.966623,Broadway & Cathedral Pkwy At Se Corner (Uptown Only),1
40.80439033,-73.966786,Broadway & Cathedral Pkwy At Nw Corner (Downtown Only),1
40.79625233,-73.961576,Central Park West & 103rd St At Nw Corner,A-C-B
40.80001133,-73.958458,Frederick Douglass Blvd & 109th St At Ne Corner,A-C-B
40.80087333,-73.958388,Frederick Douglass Blvd & Cathedral Pkwy At Sw Corner,A-C-B
40.80826433,-73.963937,Broadway & 116th St At Nw Corner,1
40.80838733,-73.963855,Broadway & 116th St At Nw Corner,1
40.80823033,-73.96351,Broadway & 116th St At Ne Corner,1
40.81568833,-73.958554,Broadway & Tiemann Pl At Nw Corner,1
40.77945333,-73.955812,Lexington Ave & 86th St At Sw Corner (Downtown Only),4-5-6-6Express
40.77968733,-73.955705,Lexington Ave & 86th St At Nw Corner (Downtown Only),4-5-6-6Express
40.78586133,-73.951243,Lexington Ave & 96th St At Sw Corner,4-6-6Express
40.78564633,-73.950899,Lexington Ave & 96th St At Se Corner,4-6-6Express
40.78605133,-73.951036,Lexington Ave & 96th St At Nw Corner,4-6-6Express
40.79481433,-73.944634,Lexington Ave & 110th St At Sw Corner (Downtown Only),4-6-6Express
40.5992145,-73.76186441,Beach 25th St & Rockaway Frwy At Sw Corner,A
40.79468533,-73.94429,Lexington Ave & 110th St At Se Corner (Uptown Only),4-6-6Express
40.80432933,-73.95563,Frederick Douglass Blvd & 116th St At Sw Corner (Downtown Only),A-C-B
40.80419133,-73.955141,Frederick Douglass Blvd & 116th St At Se Corner (Uptown Only),A-C-B
40.79900533,-73.952083,Lenox Ave & 111th St At Nw Corner,2-3
40.80196133,-73.949924,Lenox Ave & 116th St At Sw Corner (Downtown Only),2-3
40.80184233,-73.949637,Lenox Ave & 116th St At Se Corner (Uptown Only),2-3
40.80209833,-73.949443,Lenox Ave & 116th St At Ne Corner (Uptown Only),2-3
40.80442533,-73.955059,Frederick Douglass Blvd & 116th St At Ne Corner (Uptown Only),A-C-B
40.81065633,-73.952866,Saint Nicholas Ave & 125th St At Sw Corner,A-C-B-D
40.81099533,-73.952609,Saint Nicholas Ave & 125th St At Nw Corner,A-C-B-D
40.81088033,-73.952345,Saint Nicholas Ave & 125th St At Ne Corner,A-C-B-D
40.81157633,-73.952201,Saint Nicholas Ave & 126th St At Nw Corner,A-C-B-D
40.81195733,-73.951736,Saint Nicholas Ave & 127th St At Sw Corner,A-C-B-D
40.79848133,-73.941866,Lexington Ave & 116th St At Sw Corner (Downtown Only),4-6-6Express
40.79886233,-73.94159,Lexington Ave & 116th St At Nw Corner (Downtown Only),4-6-6Express
40.79872433,-73.941421,Lexington Ave & 116th St At Ne Corner (Uptown Only),4-6-6Express
40.80755933,-73.945445,Lenox Ave & 125th St At Se Corner (Uptown Only),2-3
40.80786333,-73.945238,Lenox Ave & 125th St At Ne Corner (Uptown Only),2-3
40.82135633,-73.9544,Broadway & 137th St At Sw Corner (Downtown Only),1
40.82157033,-73.954237,Broadway & 137th St At Nw Corner (Downtown Only),1
40.82157933,-73.953748,Broadway & 137th St At Ne Corner (Uptown Only),1
40.82621933,-73.950375,Broadway & 145th St At Sw Corner (Uptown Only),1
40.82648233,-73.950126,Broadway & 145th St At Nw Corner (Uptown Only),1
40.81710733,-73.948254,Saint Nicholas Ave & 135th St At Sw Corner (Downtown Only),A-C-B
40.81690233,-73.94784,Saint Nicholas Ave & 135th St At Sw Corner (Uptown Only),A-C-B
40.81717433,-73.947689,Edgecombe Ave & 135th St At Ne Corner (Uptown Only),A-C-B
40.81837433,-73.947192,Saint Nicholas Ave & 137th St At Se Corner (Uptown Only),A-C-B
40.81403333,-73.941087,Lenox Ave & 135th St At Sw Corner (Downtown Only),2-3
40.82422733,-73.944874,Saint Nicholas Ave & 145th St At Nw Corner,A-C-B-D
40.82405033,-73.944445,Saint Nicholas Ave & 145th St At Ne Corner,A-C-B-D
40.82485133,-73.944422,Saint Nicholas Ave & 146th St At Nw Corner,A-C-B-D
40.80426833,-73.937634,Lexington Ave & 125th St At Sw Corner,4-5-6-6Express
40.80417333,-73.937422,Lexington Ave & 125th St At Se Corner,4-5-6-6Express
40.80448233,-73.937215,Lexington Ave & 125th St At Ne Corner,4-5-6-6Express
40.81430033,-73.940905,Lenox Ave & 135th St At Nw Corner (Downtown Only),2-3
40.81417633,-73.940616,Lenox Ave & 135th St At Ne Corner (Uptown Only),2-3
40.82017833,-73.936245,Lenox Ave & 145th St At Se Corner (Exit Only),3
40.82064033,-73.936276,Lenox Ave & 145th St At Nw Corner (Downtown Only),3
40.82418833,-73.936928,Adam C. Powell Blvd & 149th St At Ne Corner,3
40.83426733,-73.945166,Broadway & 157th St At Nw Corner (Downtown Only),1
40.83075633,-73.941572,Saint Nicholas Ave & 155th St At Sw Corner,A-C
40.83085333,-73.941594,Saint Nicholas Ave & 155th St At Sw Corner,A-C
40.83119633,-73.941594,Saint Nicholas Ave & 155th St At Nw Corner,A-C
40.83121333,-73.941534,Saint Nicholas Ave & 155th St At Nw Corner,A-C
40.83389533,-73.944707,Broadway & 157th St At Se Corner (Uptown Only),1
40.83520633,-73.940144,Amsterdam Ave & 161st St At Se Corner (Downtown Only),A-C
40.83528733,-73.939622,Saint Nicholas Ave & 161st St At Ne Corner (Uptown Only),A-C
40.84087833,-73.940193,Broadway & 168th St At Sw Corner,1-A-C
40.84072933,-73.939741,Broadway & 168th St At Se Corner,1-A-C
40.84186133,-73.939552,Saint Nicholas Ave & 169th St At Nw Corner,1-A-C
40.84191333,-73.939454,Saint Nicholas Ave & 169th St At Nw Corner,1-A-C
40.84638125,-73.94024835,Fort Washington Ave & 175th St At Sw Corner,A
40.84642433,-73.939877,Fort Washington Ave & 175th St At Se Corner,A
40.84781333,-73.939732,Fort Washington Ave & 177th St At Sw Corner,A
40.84785933,-73.939303,Fort Washington Ave & 177th St At Ne Corner,A
40.85079633,-73.93845,Fort Washington Ave & 181st St At Sw Corner,A
40.85072533,-73.938212,Fort Washington Ave & 181st St At Se Corner,A
40.84917233,-73.93371,Saint Nicholas Ave & 181st St At Se Corner,1
40.75354633,-73.984779,6th Ave & 40th St At Ne Corner,7-7Express-B-D-F-M
40.75460934,-73.983894,6th Ave & 42nd St At Se Corner,7-7Express-B-D-F-M
40.75728633,-73.989582,8th Ave & 42nd St At Ne Corner,1-2-3-7-7Express-S-A-C-E-N-Q-R
40.75792933,-73.989547,8th Ave & 43rd St At Sw Corner,1-2-3-7-7Express-S-A-C-E-N-Q-R
40.75868533,-73.98899,8th Ave & 44th St At Nw Corner,1-2-3-7-7Express-S-A-C-E-N-Q-R
40.75840133,-73.988673,8th Ave & 44th St At Se Corner,1-2-3-7-7Express-S-A-C-E-N-Q-R
40.75524833,-73.987362,7th Ave & 41st St At Se Corner,1-2-3-7-7Express-S-A-C-E-N-Q-R
40.75604233,-73.987242,7th Ave & 42nd St At Sw Corner,1-2-3-7-7Express-S-A-C-E-N-Q-R
40.75647633,-73.986311,Broadway & 43rd St At Sw Corner,1-2-3-7-7Express-S-A-C-E-N-Q-R
40.76169133,-73.986805,8th Ave & 49th St At Sw Corner (Downtown Only),A-C-E
40.76245233,-73.986299,8th Ave & 50th St At Nw Corner (Downtown Only),A-C-E
40.74896733,-73.98854149,6th Ave & 33rd St At Sw Corner,B-D-F-M-N-Q-R
40.71181733,-74.005053,Nassau St & Frankfort St At Se Corner,4-5-6-6Express-J-Z
40.75902033,-73.984371,7th Ave & 47th St At Se Corner (Uptown Only),N-Q-R
40.75952733,-73.984889,Broadway & 47th St At Ne Corner (Downtown Only),N-Q-R
40.76208533,-73.985829,8th Ave & 50th St At Se Corner (Uptown Only),A-C-E
40.76221633,-73.985757,8th Ave & 50th St At Ne Corner (Uptown Only),A-C-E
40.76156133,-73.984154,Broadway & 50th St At Nw Corner (Downtown Only),1-2
40.76048733,-73.98396,7th Ave & 49th St At Sw Corner (Downtown Only),N-Q-R
40.76048233,-73.98343,7th Ave & 49th St At Ne Corner (Uptown Only),N-Q-R
40.76136733,-73.983782,Broadway & 50th St At Ne Corner (Uptown Only),1-2
40.75340933,-73.98113,5th Ave & 42nd St At Sw Corner,7-7Express-B-D-F-M
40.6605503,-73.83053219,103rd St & 159th Ave At Ne Corner,A
40.75218434,-73.97804803,Park Ave & 42nd St At Sw Corner,4-5-6-6Express-7-7Express-S
40.75174133,-73.977691,Park Ave & 42nd St At Se Corner,4-5-6-6Express-7-7Express-S
40.75747531,-73.96925547,3rd Ave & 53rd St At Se Corner,4-6-6Express-E-M
40.75798133,-73.98154,6th Ave & 47th St At Ne Corner,B-D-F-M
40.75861533,-73.981095,6th Ave & 48th St At Ne Corner,B-D-F-M
40.75910533,-73.981252,6th Ave & 48-49th Sts At W Corner,B-D-F-M
40.75943433,-73.981001,6th Ave & 49th St At Nw Corner,B-D-F-M
40.76012533,-73.980499,6th Ave & 50th St At Nw Corner,B-D-F-M
40.76293133,-73.981597,7th Ave & 53rd St At Ne Corner,B-D-E
40.76026733,-73.975638,5th Ave & 53rd St At Se Corner,E-M
40.75730233,-73.972125,Lexington Ave & 51st St At Nw Corner,4-6-6Express-E-M
40.75696733,-73.971709,Lexington Ave & 51st St At Se Corner,4-6-6Express-E-M
40.75704433,-73.971542,Lexington Ave & 51st St At Ne Corner,4-6-6Express-E-M
40.75811743,-73.9708125,Lexington Ave & 53rd St At Se Corner,4-6-6Express-E-M
40.75767333,-73.969102,3rd Ave & 53rd St At Ne Corner,4-6-6Express-E-M
40.76211733,-73.968132,Lexington Ave & 59th St At Se Corner,4-5-6-6Express-N-Q-R
40.76239833,-73.968339,Lexington Ave & 59th St At Nw Corner,4-5-6-6Express-N-Q-R
40.76209233,-73.96634,3rd Ave & 60th St At Sw Corner,4-5-6-6Express-N-Q-R
40.76235933,-73.966145,3rd Ave & 60th St At Nw Corner,4-5-6-6Express-N-Q-R
40.76226433,-73.965895,3rd Ave & 60th St At Ne Corner,4-5-6-6Express-N-Q-R
40.76736733,-73.982137,8th Ave & 58th St At Ne Corner,1-2-A-C-B-D
40.76877733,-73.982106,Broadway & 60th St At Sw Corner,1-2-A-C-B-D
40.76437233,-73.981153,7th Ave & 55th St At Nw Corner,N-Q-R
40.76407633,-73.980802,7th Ave & 55th St At Se Corner,N-Q-R
40.76539133,-73.980307,7th Ave & 57th St At Sw Corner,N-Q-R
40.76579633,-73.980012,7th Ave & 57th St At Nw Corner,N-Q-R
40.76357133,-73.977897,6th Ave & 56th St At Sw Corner,F
40.66707968,-73.83368865,Cohancy St & North Conduit Ave At Ne Corner,A
40.76111125,-73.98343648,Broadway & 50th St At Se Corner (Uptown Only),1-2
40.76762933,-73.981435,Columbus Circle & 59th St At Se Corner,1-2-A-C-B-D
40.76768633,-73.981335,Columbus Circle & 59th St At Se Corner,1-2-A-C-B-D
40.76346533,-73.977667,6th Ave & 56th St At Se Corner,F
40.76382633,-73.97772,6th Ave & 56th St At Nw Corner,F
40.76388376,-73.97730497,6th Ave & 56th St At Ne Corner,F
40.76464033,-73.977126,6th Ave & 57th St At Nw Corner,F
40.76479933,-73.973839,Grand Army Plaza & Central Park South At Ne Corner,N-Q-R
40.76477033,-73.97377,Grand Army Plaza & Central Park South At Ne Corner,N-Q-R
40.76466533,-73.972178,5th Ave & 60th St At Se Corner,N-Q-R
40.76473833,-73.966557,Lexington Ave & 63rd St At Sw Corner,F
40.71268733,-74.004999,Centre St & Brooklyn Bridge Approach At Nw Corner,4-5-6-6Express-J-Z
40.71286633,-74.004803,Centre St & Brooklyn Bridge Approach At Nw Corner,4-5-6-6Express-J-Z
40.71383133,-74.00384,Centre St & Reade St At Nw Corner,4-5-6-6Express-J-Z
40.71429533,-74.003151,Lafayette St & Duane St At Ne Corner,4-5-6-6Express-J-Z
40.7578017,-73.98178818,6th Ave & 47th St At Se Corner,B-D-F-M
40.75862367,-73.98156644,6th Ave & 48th St At Sw Corner,B-D-F-M
40.74306615,-73.99297065,6th Ave & 23rd St At Nw Corner (Downtown Only),F-M
40.74271499,-73.9926174,6th Ave & 23rd St At Se Corner (Uptown Only),F-M
40.74292184,-73.99306554,6th Ave & 23rd St At Sw Corner (Downtown Only),F-M
40.72165133,-74.005634,St. John La & Laight St At Se Corner,A-C-E
40.72075833,-74.005399,6th Ave & West Broadway At Nw Corner,A-C-E
40.72196733,-74.005133,Thompson St & Canal St At Ne Corner,A-C-E
40.71922733,-74.001852,Broadway & Canal St At Se Corner,4-6-6Express-J-Z-N-Q-R
40.71942433,-74.002142,Broadway & Canal St At Sw Corner,4-6-6Express-J-Z-N-Q-R
40.71938833,-74.002087,Broadway & Canal St At Sw Corner,4-6-6Express-J-Z-N-Q-R
40.71963233,-74.002001,Broadway & Canal St At Nw Corner,4-6-6Express-J-Z-N-Q-R
40.71863833,-74.000623,Lafayette St & Canal St At Nw Corner,4-6-6Express-J-Z-N-Q-R
40.72249733,-74.005994,Canal St & Varick St At Ne Corner (Uptown Only),1
40.72620833,-74.00399,6th Ave & Vandam St At Sw Corner,A-C-E
40.72798333,-74.00565,Varick St & King St At Nw Corner (Downtown Only),1
40.72856133,-74.00554,Varick St & Houston St At Sw Corner (Downtown Only),1
40.72773933,-74.005305,Varick St & King St At Se Corner (Uptown Only),1
40.72798933,-74.005258,Varick St & King St At Ne Corner (Uptown Only),1
40.72868633,-74.005517,Varick St & Houston St At Nw Corner (Downtown Only),1
40.72865633,-74.005086,Varick St & Houston St At Ne Corner (Uptown Only),1
40.72239033,-73.997437,Lafayette St & Spring St At Sw Corner (Downtown Only),4-6-6Express
40.72223533,-73.996818,Lafayette St & Spring St At Ne Corner (Uptown Only),4-6-6Express
40.71819133,-73.993577,Chrystie St & Grand St At Ne Corner,B-D
40.72000533,-73.993581,Bowery & Delancey St At Se Corner,J-Z
40.72030533,-73.993428,Bowery & Delencey St At Ne Corner,J-Z
40.72435633,-73.997891,Broadway & Prince St At Nw Corner (Downtown Only),N-R
40.72412333,-73.99768,Broadway & Prince St At Se Corner (Uptown Only),N-R
40.72520233,-73.996583,"Broadway & Houston St At Ne Corner ((4)(6)<6> Dntn, (B)(D)(F)(M))",4-5-6-6Express-B-D-F-M
40.72498733,-73.995628,"Lafayette St & Houston St At Sw Corner ((4)(6)<6> Dntn, (B)(D)(F)(M))",4-5-6-6Express-B-D-F-M
40.72501133,-73.995745,"Crosby St & Houston St At Se Corner ((4)(6)<6> Dntn, (B)(D)(F)(M))",4-5-6-6Express-B-D-F-M
40.72534433,-73.995612,"Crosby St & Houston St At Ne Corner ((4)(6)<6> Dntn, (B)(D)(F)(M))",4-5-6-6Express-B-D-F-M
40.72604733,-73.994759,"Lafayette St & Bleecker St At Nw Corner ((4)(6)<6> Dntn, (B)(D)(F)(M))",4-5-6-6Express-B-D-F-M
40.72572633,-73.994579,Lafayette St & Mulberry St At Sw Corner (Uptown Only),4-6-6Express
40.72584533,-73.99432,Lafayette St & Mulberry St At Ne Corner (Uptown Only),4-6-6Express
40.72366533,-73.991651,Chrystie St & Houston St At Sw Corner,F
40.72978633,-73.99325,Broadway & Waverly Pl At Nw Corner (Downtown Only),N-R
40.72969133,-73.993038,Broadway & Waverly Pl At Ne Corner (Uptown Only),N-R
40.73047733,-73.992286,Broadway & 8th St At Se Corner (Uptown Only),N-R
40.72996873,-73.99141039,Lafayette St & Astor Pl At Nw Corner (Downtown Only),4-6-6Express
40.73008433,-73.990838,4th Ave & East 8th St At Ne Corner (Uptown Only),4-6-6Express
40.73346733,-74.003076,7th Ave & Christopher St At Sw Corner (Downtown Only),1
40.73363433,-74.003123,7th Ave & Christopher St At Nw Corner (Downtown Only),1
40.73340233,-74.002748,7th Ave & West 4th St At Se Corner (Uptown Only),1
40.73113333,-74.001534,6th Ave & West 3rd St At Nw Corner,A-C-E-B-D-F-M
40.73063833,-73.992717,Broadway & 8th St At Sw Corner (Downtown Only),N-R
40.73076933,-73.992615,Broadway & 8th St At Nw Corner (Downtown Only),N-R
40.71272733,-73.990126,Rutgers St & Madison Ave At Nw Corner,F
40.71440433,-73.989918,Essex St & Canal St At Ne Corner,F
40.7182075,-73.98827347,Essex St & Delancey St At Se Corner,F-J-M-Z
40.71855133,-73.987623,Norfolk St & Delancey St At Nw Corner,F-J-M-Z
40.72280733,-73.988942,Allen St & Houston St At Sw Corner,F
40.72320033,-73.988863,1st Ave & Houston St At Nw Corner,F
40.70631478,-74.01405562,Greenwich St & Morris St At Ne Corner (Uptown Only),N-R
40.71858934,-74.00055194,Lafayette St & Canal St At Nw Corner,4-6-6Express-J-Z-N-Q-R
40.71815509,-74.00031694,Lafayette St & Canal St At Se Corner,4-6-6Express-J-Z-N-Q-R
40.71120575,-74.0112755,Church St & Dey St At Sw Corner (Downtown Only),N-R
40.67920153,-73.99570722,Smith St & 2nd St At Nw Corner,F-G
40.68079734,-73.99433339,Smith St & President St At Se Corner,F-G
40.68544733,-73.991114,Smith St & Warren St At Ne Corner (To Manhattan And Queens Only),F-G
40.68673433,-73.99061,Smith St & Bergen St At Sw Corner (To Coney Island Only),F-G
40.68687633,-73.990513,Smith St & Bergen St At Nw Corner (To Coney Island Only),F-G
40.68598133,-73.972987,9 Greene Avenue (To Manhattan Only),A-C
40.82967633,-73.874541,1200 Morrison Avenue,6
40.70182033,-73.801873,Intersection Of Archer Avenue And 153 Street,E-J-Z
40.75006233,-73.862198,103-07 Roosevelt Avenue,7
40.69702333,-73.935736,926 Broadway,J-M-Z
40.57651833,-73.967672,101 Brighton Beach Avenue,B-Q
40.69388633,-73.929471,1117 Broadway,J
40.76143233,-73.98437,1627 Broadway (Downtown Only),1-2
40.71684333,-73.956301,214 North 7 Street,L
40.68052584,-73.94944335,1293 Fulton Street (To Manhattan Only),A-C
40.66599933,-73.979256,820 8 Avenue,F
40.71393933,-73.949229,566 Lorimer Street,G-L
40.74883533,-73.93704,29-00 Northern Boulevard,E-M-R
40.67446233,-73.896714,349 Liberty Avenue,A-C
40.70675485,-74.00880373,47 Pine Street,2-3
40.71016233,-74.009156,192 Broadway (Enter On John St.),2-3-4-5-A-C-J-Z
40.72426033,-73.997977,565 Broadway (Downtown Only),N-R
40.64503433,-73.948795,3010 Beverly Road (To Manhattan Only),2-5
40.70160556,-74.01333346,1 Whitehall Street,1
40.69550433,-73.949071,567 Marcy Avenue,G
40.66323833,-73.950674,1021 Nostrand Avenue,2-5
40.84942433,-73.933339,1422 St Nicholas Avenue,1
40.70869997,-73.95912626,266 Broadway (To Queens And Canarsie Only),J-M-Z
40.75899633,-73.980788,1220 6 Avenue,B-D-F-M
40.74242433,-73.953147,Jackson Ave & 50th Ave At Sw Corner (To Flushing Only),7-7Express
40.75227938,-73.97827999,Vanderbilt Ave & 42nd St At Se Corner,4-5-6-6Express-7-7Express-S
40.75433533,-73.987097,Broadway & 40th St At Sw Corner,1-2-3-7-7Express-S-A-C-E-N-Q-R
40.75533371,-73.98393426,6th Ave & 42nd St At Nw Corner,7-7Express-B-D-F-M
40.78590333,-73.950698,Lexington Ave & 96th St At Ne Corner,4-6-6Express
40.75715333,-73.972143,Lexington Ave & 51st St At Sw Corner,4-6-6Express-E-M
40.71389033,-74.003637,Centre St & Reade St At Nw Corner,4-5-6-6Express-J-Z
40.73533233,-73.99105,Broadway & 14th St At Ne Corner,4-5-6-6Express-L-N-Q-R
40.74624233,-73.9816,Park Ave & 33rd St At Se Corner (Uptown Only),4-6-6Express
40.73436133,-73.98928,101 East 14 Street,4-5-6-6Express-L-N-Q-R
40.79841933,-73.941634,Lexington Ave & 116th St At Se Corner (Uptown Only),4-6-6Express
40.71018433,-73.79473,168th St & Hillside Ave At Ne Corner,F
40.71306033,-73.782651,180th St & Hillside Ave At Nw Corner,F
40.59113433,-73.796517,Beach 67th St & Rockaway Frwy At Nw Corner,A
40.59522633,-73.768247,Beach 36th & Edgemere Ave At Se Corner,A
40.66361594,-73.90058385,Van Sinderen Ave & Livonia Ave At Sw Corner,L
40.68620833,-73.824521,Lefferts Blvd & Liberty Ave At Nw Corner,A-S
40.60782033,-74.00157,18th Ave & 85th St At Ne Corner,D
40.87399733,-73.886504,Grand Concourse & 203rd St At Ne Corner,B-D
40.86553733,-73.867524,White Plains Rd & Allerton Ave At Nw Corner,2-5
40.83409233,-73.851788,Castle Hill Ave & Westchester Ave At Sw Corner,6-6Express
40.90357833,-73.850418,White Plains Rd & 241st St At Nw Corner,2
40.73007033,-73.861428,63rd Dr & Queens Blvd At Nw Corner,E-M-R
40.69262819,-73.99106492,Court St & Joralemon St At Nw Corner,2-3-4-5-N-R
40.71819733,-74.000388,Lafayette St & Canal St At Se Corner,4-6-6Express-J-Z-N-Q-R
40.72256933,-74.00608,Canal St & Varick St At Ne Corner (Uptown Only),1
40.67995374,-73.9400625,Throop Ave & Fulton St At Ne Corner (To Manhattan Only),A-C
40.8132942,-73.92990842,Grand Concourse & 138th St At Nw Corner,4-5
40.72221834,-73.844988,70th Rd & Queens Blvd At Nw Corner,E-F-M-R
40.70758333,-73.802587,Parsons Blvd & Hillside Ave At Se Corner,F
40.58795133,-73.813556,Beach 89th St & Rockaway Frwy At Sw Corner,A-S
40.74283456,-73.88298047,Britton Ave & Broadway At Sw Corner,E-M-R
40.74613033,-73.945334,23rd St & 45th Rd At Se Corner,7-7Express
40.75218333,-73.929232,35th St & 38th Ave At Sw Corner (To Manhattan And Brooklyn Only),E-M-R
40.75413133,-73.942491,21st St & 41st Ave At Nw Corner,F
40.74642733,-73.99735,8th Ave & 25th St At Se Corner,A-C-E
40.75279633,-73.992669,8th Ave & 35th St At Ne Corner,A-C-E
40.73947733,-73.986562,Park Ave & 22nd St At Ne Corner (Uptown Only),4-6-6Express
40.75598933,-73.991049,613 8 Avenue,1-2-3-7-7Express-S-A-C-E-N-Q-R
40.74249454,-73.94857258,21st St & 49th Ave At Ne Corner,7-7Express
40.79024133,-73.947854,Lexington Ave & 103rd St At Sw Corner,4-6-6Express
40.75746333,-73.989984,8th Ave & 42nd St At Nw Corner,1-2-3-7-7Express-S-A-C-E-N-Q-R
40.75624162,-73.98713328,7th Ave & 42nd St At Nw Corner,1-2-3-7-7Express-S-A-C-E-N-Q-R
40.75700833,-73.971798,Lexington Ave & 51st St At Se Corner,4-6-6Express-E-M
40.71835833,-74.000216,Lafayette St & Canal St At Ne Corner,4-6-6Express-J-Z-N-Q-R
40.73452233,-73.990283,4th Ave & 14th St At Sw Corner,4-5-6-6Express-L-N-Q-R
40.75610133,-73.990887,8th Ave & 40th St At Nw Corner,1-2-3-7-7Express-S-A-C-E-N-Q-R
40.74856333,-73.988485,6th Ave & 32nd St At Ne Corner,B-D-F-M-N-Q-R
40.75450733,-73.987108,Broadway & 40th St At Nw Corner,1-2-3-7-7Express-S-A-C-E-N-Q-R
40.71111533,-74.009375,Broadway & Fulton St At Nw Corner,2-3-4-5-A-C-J-Z
40.68128933,-73.83873,104-02 102 Street,A-S
40.73515933,-73.989789,101 East 14 Street (Enter On E 14th St),4-5-6-6Express-L-N-Q-R
40.75135233,-73.976396,117 East 41 Street,4-5-6-6Express-7-7Express-S
40.75557533,-73.986311,Broadway & 42nd St At Se Corner,1-2-3-7-7Express-S-A-C-E-N-Q-R
40.76425733,-73.981235,7th Ave & 55th St At Sw Corner,N-Q-R
40.68714754,-73.97626385,Fort Greene Pl & Lafayette Ave At Ne Corner,G
40.67945733,-73.86007,77th St & Liberty Ave At Ne Corner,A-S
40.69020333,-73.871614,Autumn Ave & Jamaica Ave At Se Corner,J
40.6603722,-73.83036901,103rd St & 159th Ave At Se Corner,A
40.65120912,-73.89891028,Turnbull Ave & E 105th St At Se Corner,L
40.66334876,-73.90052578,Van Sinderen Ave & Livonia Ave At Sw Corner,L
40.66978369,-73.90231907,Lirr Bay Ridge Divide & Belmont Ave At Nw Corner,L
40.68001997,-73.85051963,88th St & Liberty Ave At Ne Corner,A-S
40.69414933,-73.850468,95th St & Jamaica Ave At Sw Corner,J-Z
40.68079833,-73.842563,97th St & Liberty Ave At Sw Corner,A-S
40.68216333,-73.836971,104th St & Liberty Ave At Ne Corner,A-S
40.68428033,-73.832856,109th St & Liberty Ave At Nw Corner,A-S
40.68595333,-73.827008,116th St & Liberty Ave At Nw Corner,A-S
40.70052033,-73.829231,121st St & Jamaica Ave At Nw Corner,J-Z
40.70077434,-73.82754364,123rd St & Jamaica Ave At Nw Corner,J-Z
40.61617133,-74.031225,4th Ave & 95th St At Nw Corner,R
40.61752933,-74.030295,4th Ave & 93th St At Ne Corner,R
40.62254533,-74.02832,4th Ave & 86th St At Se Corner,R
40.62948033,-74.025453,4th Ave & 77th St At Ne Corner,R
40.60764733,-74.001507,18th Ave & 85th St At Se Corner,D
40.61284133,-74.000593,New Utrecht Ave & 79th St At Ne Corner,D
40.60446033,-73.998256,20th Ave & 86th St At Se Corner,D
40.60478233,-73.998264,20th Ave & 86th St At Nw Corner,D
40.60177933,-73.993786,Bay Pkwy & 86th St At Se Corner,D
40.61895233,-73.99885,New Utrecht Ave & 71st St At Ne Corner,D
40.62132133,-73.991492,17th Ave & 64th St At Ne Corner,N
40.62718433,-73.996512,14th Ave & 61st St At Ne Corner,D-N
40.62427733,-73.995946,63rd St & 15th Ave At Se Corner,D-N
40.63140433,-73.995319,New Utrecht Ave & 55th St At Se Corner,D
40.57695233,-73.981115,Stillwell Ave & Mermaid Ave At Se Corner,D-F-N-Q
40.58054769,-73.97477776,West 6th St & Neptune Ave At Nw Corner,F
40.58813233,-73.983489,Stillwell Ave & Bay 50th St At Se Corner,D
40.59788333,-73.987402,25th Ave & 86th St At Sw Corner,D
40.59809233,-73.987199,25th Ave & 86th St At Nw Corner,D
